[
  {
    "name": "Hartsfield Jackson Atlanta International Airport",
    "city": "Atlanta",
    "country": "United States",
    "iata_code": "ATL",
    "_geoloc": {
      "lat": 33.636719,
      "lng": -84.428067
    },
    "links_count": 1826,
    "objectID": "3682",
    "country_iso": "US"
  },
  {
    "name": "Chicago Ohare International Airport",
    "city": "Chicago",
    "country": "United States",
    "iata_code": "ORD",
    "_geoloc": {
      "lat": 41.978603,
      "lng": -87.904842
    },
    "links_count": 1108,
    "objectID": "3830",
    "country_iso": "US"
  },
  {
    "name": "Capital International Airport",
    "city": "Beijing",
    "country": "China",
    "iata_code": "PEK",
    "_geoloc": {
      "lat": 40.080111,
      "lng": 116.584556
    },
    "links_count": 1069,
    "objectID": "3364",
    "country_iso": "CN"
  },
  {
    "name": "Heathrow",
    "city": "London",
    "country": "United Kingdom",
    "iata_code": "LHR",
    "_geoloc": {
      "lat": 51.4775,
      "lng": -0.461389
    },
    "links_count": 1051,
    "objectID": "507",
    "country_iso": "GB"
  },
  {
    "name": "Charles De Gaulle",
    "city": "Paris",
    "country": "France",
    "iata_code": "CDG",
    "_geoloc": {
      "lat": 49.012779,
      "lng": 2.55
    },
    "links_count": 1041,
    "objectID": "1382",
    "country_iso": "FR"
  },
  {
    "name": "Los Angeles International Airport",
    "city": "Los Angeles",
    "country": "United States",
    "iata_code": "LAX",
    "_geoloc": {
      "lat": 33.942536,
      "lng": -118.408075
    },
    "links_count": 990,
    "objectID": "3484",
    "country_iso": "US"
  },
  {
    "name": "Frankfurt Main",
    "city": "Frankfurt",
    "country": "Germany",
    "iata_code": "FRA",
    "_geoloc": {
      "lat": 50.026421,
      "lng": 8.543125
    },
    "links_count": 990,
    "objectID": "340",
    "country_iso": "DE"
  },
  {
    "name": "Dallas Fort Worth International Airport",
    "city": "Dallas-Fort Worth",
    "country": "United States",
    "iata_code": "DFW",
    "_geoloc": {
      "lat": 32.896828,
      "lng": -97.037997
    },
    "links_count": 936,
    "objectID": "3670",
    "country_iso": "US"
  },
  {
    "name": "John F Kennedy International Airport",
    "city": "New York",
    "country": "United States",
    "iata_code": "JFK",
    "_geoloc": {
      "lat": 40.639751,
      "lng": -73.778925
    },
    "links_count": 911,
    "objectID": "3797",
    "country_iso": "US"
  },
  {
    "name": "Schiphol",
    "city": "Amsterdam",
    "country": "Netherlands",
    "iata_code": "AMS",
    "_geoloc": {
      "lat": 52.308613,
      "lng": 4.763889
    },
    "links_count": 903,
    "objectID": "580",
    "country_iso": "NL"
  },
  {
    "name": "Pudong",
    "city": "Shanghai",
    "country": "China",
    "iata_code": "PVG",
    "_geoloc": {
      "lat": 31.143378,
      "lng": 121.805214
    },
    "links_count": 825,
    "objectID": "3406",
    "country_iso": "CN"
  },
  {
    "name": "Changi International Airport",
    "city": "Singapore",
    "country": "Singapore",
    "iata_code": "SIN",
    "_geoloc": {
      "lat": 1.350189,
      "lng": 103.994433
    },
    "links_count": 820,
    "objectID": "3316",
    "country_iso": "SG"
  },
  {
    "name": "Barcelona",
    "city": "Barcelona",
    "country": "Spain",
    "iata_code": "BCN",
    "_geoloc": {
      "lat": 41.297078,
      "lng": 2.078464
    },
    "links_count": 783,
    "objectID": "1218",
    "country_iso": "ES"
  },
  {
    "name": "Incheon International Airport",
    "city": "Seoul",
    "country": "South Korea",
    "iata_code": "ICN",
    "_geoloc": {
      "lat": 37.469075,
      "lng": 126.450517
    },
    "links_count": 740,
    "objectID": "3930",
    "country_iso": "KR"
  },
  {
    "name": "Denver International Airport",
    "city": "Denver",
    "country": "United States",
    "iata_code": "DEN",
    "_geoloc": {
      "lat": 39.861656,
      "lng": -104.673178
    },
    "links_count": 735,
    "objectID": "3751",
    "country_iso": "US"
  },
  {
    "name": "Miami International Airport",
    "city": "Miami",
    "country": "United States",
    "iata_code": "MIA",
    "_geoloc": {
      "lat": 25.79325,
      "lng": -80.290556
    },
    "links_count": 734,
    "objectID": "3576",
    "country_iso": "US"
  },
  {
    "name": "Franz Josef Strauss",
    "city": "Munich",
    "country": "Germany",
    "iata_code": "MUC",
    "_geoloc": {
      "lat": 48.353783,
      "lng": 11.786086
    },
    "links_count": 728,
    "objectID": "346",
    "country_iso": "DE"
  },
  {
    "name": "Ataturk",
    "city": "Istanbul",
    "country": "Turkey",
    "iata_code": "IST",
    "_geoloc": {
      "lat": 40.976922,
      "lng": 28.814606
    },
    "links_count": 719,
    "objectID": "1701",
    "country_iso": "TR"
  },
  {
    "name": "Hartsfield Jackson Atlanta International Airport",
    "city": "Atlanta",
    "country": "United States",
    "iata_code": "ATL",
    "_geoloc": {
      "lat": 33.636719,
      "lng": -84.428067
    },
    "links_count": 1826,
    "objectID": "3682",
    "country_iso": "US"
  },
  {
    "name": "Chicago Ohare International Airport",
    "city": "Chicago",
    "country": "United States",
    "iata_code": "ORD",
    "_geoloc": {
      "lat": 41.978603,
      "lng": -87.904842
    },
    "links_count": 1108,
    "objectID": "3830",
    "country_iso": "US"
  },
  {
    "name": "Capital International Airport",
    "city": "Beijing",
    "country": "China",
    "iata_code": "PEK",
    "_geoloc": {
      "lat": 40.080111,
      "lng": 116.584556
    },
    "links_count": 1069,
    "objectID": "3364",
    "country_iso": "CN"
  },
  {
    "name": "Heathrow",
    "city": "London",
    "country": "United Kingdom",
    "iata_code": "LHR",
    "_geoloc": {
      "lat": 51.4775,
      "lng": -0.461389
    },
    "links_count": 1051,
    "objectID": "507",
    "country_iso": "GB"
  },
  {
    "name": "Charles De Gaulle",
    "city": "Paris",
    "country": "France",
    "iata_code": "CDG",
    "_geoloc": {
      "lat": 49.012779,
      "lng": 2.55
    },
    "links_count": 1041,
    "objectID": "1382",
    "country_iso": "FR"
  },
  {
    "name": "Los Angeles International Airport",
    "city": "Los Angeles",
    "country": "United States",
    "iata_code": "LAX",
    "_geoloc": {
      "lat": 33.942536,
      "lng": -118.408075
    },
    "links_count": 990,
    "objectID": "3484",
    "country_iso": "US"
  },
  {
    "name": "Frankfurt Main",
    "city": "Frankfurt",
    "country": "Germany",
    "iata_code": "FRA",
    "_geoloc": {
      "lat": 50.026421,
      "lng": 8.543125
    },
    "links_count": 990,
    "objectID": "340",
    "country_iso": "DE"
  },
  {
    "name": "Dallas Fort Worth International Airport",
    "city": "Dallas-Fort Worth",
    "country": "United States",
    "iata_code": "DFW",
    "_geoloc": {
      "lat": 32.896828,
      "lng": -97.037997
    },
    "links_count": 936,
    "objectID": "3670",
    "country_iso": "US"
  },
  {
    "name": "John F Kennedy International Airport",
    "city": "New York",
    "country": "United States",
    "iata_code": "JFK",
    "_geoloc": {
      "lat": 40.639751,
      "lng": -73.778925
    },
    "links_count": 911,
    "objectID": "3797",
    "country_iso": "US"
  },
  {
    "name": "Schiphol",
    "city": "Amsterdam",
    "country": "Netherlands",
    "iata_code": "AMS",
    "_geoloc": {
      "lat": 52.308613,
      "lng": 4.763889
    },
    "links_count": 903,
    "objectID": "580",
    "country_iso": "NL"
  },
  {
    "name": "Pudong",
    "city": "Shanghai",
    "country": "China",
    "iata_code": "PVG",
    "_geoloc": {
      "lat": 31.143378,
      "lng": 121.805214
    },
    "links_count": 825,
    "objectID": "3406",
    "country_iso": "CN"
  },
  {
    "name": "Changi International Airport",
    "city": "Singapore",
    "country": "Singapore",
    "iata_code": "SIN",
    "_geoloc": {
      "lat": 1.350189,
      "lng": 103.994433
    },
    "links_count": 820,
    "objectID": "3316",
    "country_iso": "SG"
  },
  {
    "name": "Barcelona",
    "city": "Barcelona",
    "country": "Spain",
    "iata_code": "BCN",
    "_geoloc": {
      "lat": 41.297078,
      "lng": 2.078464
    },
    "links_count": 783,
    "objectID": "1218",
    "country_iso": "ES"
  },
  {
    "name": "Incheon International Airport",
    "city": "Seoul",
    "country": "South Korea",
    "iata_code": "ICN",
    "_geoloc": {
      "lat": 37.469075,
      "lng": 126.450517
    },
    "links_count": 740,
    "objectID": "3930",
    "country_iso": "KR"
  },
  {
    "name": "Denver International Airport",
    "city": "Denver",
    "country": "United States",
    "iata_code": "DEN",
    "_geoloc": {
      "lat": 39.861656,
      "lng": -104.673178
    },
    "links_count": 735,
    "objectID": "3751",
    "country_iso": "US"
  },
  {
    "name": "Miami International Airport",
    "city": "Miami",
    "country": "United States",
    "iata_code": "MIA",
    "_geoloc": {
      "lat": 25.79325,
      "lng": -80.290556
    },
    "links_count": 734,
    "objectID": "3576",
    "country_iso": "US"
  },
  {
    "name": "Franz Josef Strauss",
    "city": "Munich",
    "country": "Germany",
    "iata_code": "MUC",
    "_geoloc": {
      "lat": 48.353783,
      "lng": 11.786086
    },
    "links_count": 728,
    "objectID": "346",
    "country_iso": "DE"
  },
  {
    "name": "Ataturk",
    "city": "Istanbul",
    "country": "Turkey",
    "iata_code": "IST",
    "_geoloc": {
      "lat": 40.976922,
      "lng": 28.814606
    },
    "links_count": 719,
    "objectID": "1701",
    "country_iso": "TR"
  },
  {
    "name": "Hartsfield Jackson Atlanta International Airport",
    "city": "Atlanta",
    "country": "United States",
    "iata_code": "ATL",
    "_geoloc": {
      "lat": 33.636719,
      "lng": -84.428067
    },
    "links_count": 1826,
    "objectID": "3682",
    "country_iso": "US"
  },
  {
    "name": "Chicago Ohare International Airport",
    "city": "Chicago",
    "country": "United States",
    "iata_code": "ORD",
    "_geoloc": {
      "lat": 41.978603,
      "lng": -87.904842
    },
    "links_count": 1108,
    "objectID": "3830",
    "country_iso": "US"
  },
  {
    "name": "Capital International Airport",
    "city": "Beijing",
    "country": "China",
    "iata_code": "PEK",
    "_geoloc": {
      "lat": 40.080111,
      "lng": 116.584556
    },
    "links_count": 1069,
    "objectID": "3364",
    "country_iso": "CN"
  },
  {
    "name": "Heathrow",
    "city": "London",
    "country": "United Kingdom",
    "iata_code": "LHR",
    "_geoloc": {
      "lat": 51.4775,
      "lng": -0.461389
    },
    "links_count": 1051,
    "objectID": "507",
    "country_iso": "GB"
  },
  {
    "name": "Charles De Gaulle",
    "city": "Paris",
    "country": "France",
    "iata_code": "CDG",
    "_geoloc": {
      "lat": 49.012779,
      "lng": 2.55
    },
    "links_count": 1041,
    "objectID": "1382",
    "country_iso": "FR"
  },
  {
    "name": "Los Angeles International Airport",
    "city": "Los Angeles",
    "country": "United States",
    "iata_code": "LAX",
    "_geoloc": {
      "lat": 33.942536,
      "lng": -118.408075
    },
    "links_count": 990,
    "objectID": "3484",
    "country_iso": "US"
  },
  {
    "name": "Frankfurt Main",
    "city": "Frankfurt",
    "country": "Germany",
    "iata_code": "FRA",
    "_geoloc": {
      "lat": 50.026421,
      "lng": 8.543125
    },
    "links_count": 990,
    "objectID": "340",
    "country_iso": "DE"
  },
  {
    "name": "Dallas Fort Worth International Airport",
    "city": "Dallas-Fort Worth",
    "country": "United States",
    "iata_code": "DFW",
    "_geoloc": {
      "lat": 32.896828,
      "lng": -97.037997
    },
    "links_count": 936,
    "objectID": "3670",
    "country_iso": "US"
  },
  {
    "name": "John F Kennedy International Airport",
    "city": "New York",
    "country": "United States",
    "iata_code": "JFK",
    "_geoloc": {
      "lat": 40.639751,
      "lng": -73.778925
    },
    "links_count": 911,
    "objectID": "3797",
    "country_iso": "US"
  },
  {
    "name": "Schiphol",
    "city": "Amsterdam",
    "country": "Netherlands",
    "iata_code": "AMS",
    "_geoloc": {
      "lat": 52.308613,
      "lng": 4.763889
    },
    "links_count": 903,
    "objectID": "580",
    "country_iso": "NL"
  },
  {
    "name": "Pudong",
    "city": "Shanghai",
    "country": "China",
    "iata_code": "PVG",
    "_geoloc": {
      "lat": 31.143378,
      "lng": 121.805214
    },
    "links_count": 825,
    "objectID": "3406",
    "country_iso": "CN"
  },
  {
    "name": "Changi International Airport",
    "city": "Singapore",
    "country": "Singapore",
    "iata_code": "SIN",
    "_geoloc": {
      "lat": 1.350189,
      "lng": 103.994433
    },
    "links_count": 820,
    "objectID": "3316",
    "country_iso": "SG"
  },
  {
    "name": "Barcelona",
    "city": "Barcelona",
    "country": "Spain",
    "iata_code": "BCN",
    "_geoloc": {
      "lat": 41.297078,
      "lng": 2.078464
    },
    "links_count": 783,
    "objectID": "1218",
    "country_iso": "ES"
  },
  {
    "name": "Incheon International Airport",
    "city": "Seoul",
    "country": "South Korea",
    "iata_code": "ICN",
    "_geoloc": {
      "lat": 37.469075,
      "lng": 126.450517
    },
    "links_count": 740,
    "objectID": "3930",
    "country_iso": "KR"
  },
  {
    "name": "Denver International Airport",
    "city": "Denver",
    "country": "United States",
    "iata_code": "DEN",
    "_geoloc": {
      "lat": 39.861656,
      "lng": -104.673178
    },
    "links_count": 735,
    "objectID": "3751",
    "country_iso": "US"
  },
  {
    "name": "Miami International Airport",
    "city": "Miami",
    "country": "United States",
    "iata_code": "MIA",
    "_geoloc": {
      "lat": 25.79325,
      "lng": -80.290556
    },
    "links_count": 734,
    "objectID": "3576",
    "country_iso": "US"
  },
  {
    "name": "Franz Josef Strauss",
    "city": "Munich",
    "country": "Germany",
    "iata_code": "MUC",
    "_geoloc": {
      "lat": 48.353783,
      "lng": 11.786086
    },
    "links_count": 728,
    "objectID": "346",
    "country_iso": "DE"
  },
  {
    "name": "Ataturk",
    "city": "Istanbul",
    "country": "Turkey",
    "iata_code": "IST",
    "_geoloc": {
      "lat": 40.976922,
      "lng": 28.814606
    },
    "links_count": 719,
    "objectID": "1701",
    "country_iso": "TR"
  },
  {
    "name": "Hartsfield Jackson Atlanta International Airport",
    "city": "Atlanta",
    "country": "United States",
    "iata_code": "ATL",
    "_geoloc": {
      "lat": 33.636719,
      "lng": -84.428067
    },
    "links_count": 1826,
    "objectID": "3682",
    "country_iso": "US"
  },
  {
    "name": "Chicago Ohare International Airport",
    "city": "Chicago",
    "country": "United States",
    "iata_code": "ORD",
    "_geoloc": {
      "lat": 41.978603,
      "lng": -87.904842
    },
    "links_count": 1108,
    "objectID": "3830",
    "country_iso": "US"
  },
  {
    "name": "Capital International Airport",
    "city": "Beijing",
    "country": "China",
    "iata_code": "PEK",
    "_geoloc": {
      "lat": 40.080111,
      "lng": 116.584556
    },
    "links_count": 1069,
    "objectID": "3364",
    "country_iso": "CN"
  },
  {
    "name": "Heathrow",
    "city": "London",
    "country": "United Kingdom",
    "iata_code": "LHR",
    "_geoloc": {
      "lat": 51.4775,
      "lng": -0.461389
    },
    "links_count": 1051,
    "objectID": "507",
    "country_iso": "GB"
  },
  {
    "name": "Charles De Gaulle",
    "city": "Paris",
    "country": "France",
    "iata_code": "CDG",
    "_geoloc": {
      "lat": 49.012779,
      "lng": 2.55
    },
    "links_count": 1041,
    "objectID": "1382",
    "country_iso": "FR"
  },
  {
    "name": "Los Angeles International Airport",
    "city": "Los Angeles",
    "country": "United States",
    "iata_code": "LAX",
    "_geoloc": {
      "lat": 33.942536,
      "lng": -118.408075
    },
    "links_count": 990,
    "objectID": "3484",
    "country_iso": "US"
  },
  {
    "name": "Frankfurt Main",
    "city": "Frankfurt",
    "country": "Germany",
    "iata_code": "FRA",
    "_geoloc": {
      "lat": 50.026421,
      "lng": 8.543125
    },
    "links_count": 990,
    "objectID": "340",
    "country_iso": "DE"
  },
  {
    "name": "Dallas Fort Worth International Airport",
    "city": "Dallas-Fort Worth",
    "country": "United States",
    "iata_code": "DFW",
    "_geoloc": {
      "lat": 32.896828,
      "lng": -97.037997
    },
    "links_count": 936,
    "objectID": "3670",
    "country_iso": "US"
  },
  {
    "name": "John F Kennedy International Airport",
    "city": "New York",
    "country": "United States",
    "iata_code": "JFK",
    "_geoloc": {
      "lat": 40.639751,
      "lng": -73.778925
    },
    "links_count": 911,
    "objectID": "3797",
    "country_iso": "US"
  },
  {
    "name": "Schiphol",
    "city": "Amsterdam",
    "country": "Netherlands",
    "iata_code": "AMS",
    "_geoloc": {
      "lat": 52.308613,
      "lng": 4.763889
    },
    "links_count": 903,
    "objectID": "580",
    "country_iso": "NL"
  },
  {
    "name": "Pudong",
    "city": "Shanghai",
    "country": "China",
    "iata_code": "PVG",
    "_geoloc": {
      "lat": 31.143378,
      "lng": 121.805214
    },
    "links_count": 825,
    "objectID": "3406",
    "country_iso": "CN"
  },
  {
    "name": "Changi International Airport",
    "city": "Singapore",
    "country": "Singapore",
    "iata_code": "SIN",
    "_geoloc": {
      "lat": 1.350189,
      "lng": 103.994433
    },
    "links_count": 820,
    "objectID": "3316",
    "country_iso": "SG"
  },
  {
    "name": "Barcelona",
    "city": "Barcelona",
    "country": "Spain",
    "iata_code": "BCN",
    "_geoloc": {
      "lat": 41.297078,
      "lng": 2.078464
    },
    "links_count": 783,
    "objectID": "1218",
    "country_iso": "ES"
  },
  {
    "name": "Incheon International Airport",
    "city": "Seoul",
    "country": "South Korea",
    "iata_code": "ICN",
    "_geoloc": {
      "lat": 37.469075,
      "lng": 126.450517
    },
    "links_count": 740,
    "objectID": "3930",
    "country_iso": "KR"
  },
  {
    "name": "Denver International Airport",
    "city": "Denver",
    "country": "United States",
    "iata_code": "DEN",
    "_geoloc": {
      "lat": 39.861656,
      "lng": -104.673178
    },
    "links_count": 735,
    "objectID": "3751",
    "country_iso": "US"
  },
  {
    "name": "Miami International Airport",
    "city": "Miami",
    "country": "United States",
    "iata_code": "MIA",
    "_geoloc": {
      "lat": 25.79325,
      "lng": -80.290556
    },
    "links_count": 734,
    "objectID": "3576",
    "country_iso": "US"
  },
  {
    "name": "Franz Josef Strauss",
    "city": "Munich",
    "country": "Germany",
    "iata_code": "MUC",
    "_geoloc": {
      "lat": 48.353783,
      "lng": 11.786086
    },
    "links_count": 728,
    "objectID": "346",
    "country_iso": "DE"
  },
  {
    "name": "Ataturk",
    "city": "Istanbul",
    "country": "Turkey",
    "iata_code": "IST",
    "_geoloc": {
      "lat": 40.976922,
      "lng": 28.814606
    },
    "links_count": 719,
    "objectID": "1701",
    "country_iso": "TR"
  },
  {
    "name": "Dubai International Airport",
    "city": "Dubai",
    "country": "United Arab Emirates",
    "iata_code": "DXB",
    "_geoloc": {
      "lat": 25.252778,
      "lng": 55.364444
    },
    "links_count": 710,
    "objectID": "2188",
    "country_iso": "AE"
  },
  {
    "name": "Dubai Airport",
    "city": "Dubai",
    "country": "United Arab Emirates",
    "iata_code": "XMB",
    "_geoloc": {
      "lat": 25.252778,
      "lng": 55.364444
    },
    "links_count": 710,
    "objectID": "21888",
    "country_iso": "AE"
  },
  {
    "name": "Dubai Bus Station",
    "city": "Dubai",
    "country": "United Arab Emirates",
    "iata_code": "XNB",
    "_geoloc": {
      "lat": 25.252778,
      "lng": 55.364444
    },
    "links_count": 710,
    "objectID": "21889",
    "country_iso": "AE"
  },
  {
    "name": "Gatwick",
    "city": "London",
    "country": "United Kingdom",
    "iata_code": "LGW",
    "_geoloc": {
      "lat": 51.148056,
      "lng": -0.190278
    },
    "links_count": 708,
    "objectID": "502",
    "country_iso": "GB"
  },
  {
    "name": "Baiyun International Airport",
    "city": "Guangzhou",
    "country": "China",
    "iata_code": "CAN",
    "_geoloc": {
      "lat": 23.392436,
      "lng": 113.298786
    },
    "links_count": 674,
    "objectID": "3370",
    "country_iso": "CN"
  },
  {
    "name": "Fiumicino",
    "city": "Rome",
    "country": "Italy",
    "iata_code": "FCO",
    "_geoloc": {
      "lat": 41.804475,
      "lng": 12.250797
    },
    "links_count": 662,
    "objectID": "1555",
    "country_iso": "IT"
  },
  {
    "name": "Barajas",
    "city": "Madrid",
    "country": "Spain",
    "iata_code": "MAD",
    "_geoloc": {
      "lat": 40.493556,
      "lng": -3.566764
    },
    "links_count": 661,
    "objectID": "1229",
    "country_iso": "ES"
  },
  {
    "name": "Suvarnabhumi International Airport",
    "city": "Bangkok",
    "country": "Thailand",
    "iata_code": "BKK",
    "_geoloc": {
      "lat": 13.681108,
      "lng": 100.747283
    },
    "links_count": 656,
    "objectID": "3885",
    "country_iso": "TH"
  },
  {
    "name": "Domododevo",
    "city": "Moscow",
    "country": "Russia",
    "iata_code": "DME",
    "_geoloc": {
      "lat": 55.408611,
      "lng": 37.906111
    },
    "links_count": 649,
    "objectID": "4029",
    "country_iso": "RU"
  },
  {
    "name": "Shuangliu",
    "city": "Chengdu",
    "country": "China",
    "iata_code": "CTU",
    "_geoloc": {
      "lat": 30.578528,
      "lng": 103.947086
    },
    "links_count": 647,
    "objectID": "3395",
    "country_iso": "CN"
  },
  {
    "name": "Lester B Pearson International Airport",
    "city": "Toronto",
    "country": "Canada",
    "iata_code": "YYZ",
    "_geoloc": {
      "lat": 43.677223,
      "lng": -79.630556
    },
    "links_count": 636,
    "objectID": "193",
    "country_iso": "CA"
  },
  {
    "name": "Brussels Natl",
    "city": "Brussels",
    "country": "Belgium",
    "iata_code": "BRU",
    "_geoloc": {
      "lat": 50.901389,
      "lng": 4.484444
    },
    "links_count": 631,
    "objectID": "302",
    "country_iso": "BE"
  },
  {
    "name": "Manchester",
    "city": "Manchester",
    "country": "United Kingdom",
    "iata_code": "MAN",
    "_geoloc": {
      "lat": 53.353744,
      "lng": -2.27495
    },
    "links_count": 627,
    "objectID": "478",
    "country_iso": "GB"
  },
  {
    "name": "Schwechat",
    "city": "Vienna",
    "country": "Austria",
    "iata_code": "VIE",
    "_geoloc": {
      "lat": 48.110278,
      "lng": 16.569722
    },
    "links_count": 616,
    "objectID": "1613",
    "country_iso": "AT"
  },
  {
    "name": "Charlotte Douglas International Airport",
    "city": "Charlotte",
    "country": "United States",
    "iata_code": "CLT",
    "_geoloc": {
      "lat": 35.214,
      "lng": -80.943139
    },
    "links_count": 600,
    "objectID": "3876",
    "country_iso": "US"
  },
  {
    "name": "Philadelphia International Airport",
    "city": "Philadelphia",
    "country": "United States",
    "iata_code": "PHL",
    "_geoloc": {
      "lat": 39.871944,
      "lng": -75.241139
    },
    "links_count": 576,
    "objectID": "3752",
    "country_iso": "US"
  },
  {
    "name": "Narita International Airport",
    "city": "Tokyo",
    "country": "Japan",
    "iata_code": "NRT",
    "_geoloc": {
      "lat": 35.764722,
      "lng": 140.386389
    },
    "links_count": 575,
    "objectID": "2279",
    "country_iso": "JP"
  },
  {
    "name": "Dusseldorf",
    "city": "Duesseldorf",
    "country": "Germany",
    "iata_code": "DUS",
    "_geoloc": {
      "lat": 51.289453,
      "lng": 6.766775
    },
    "links_count": 570,
    "objectID": "345",
    "country_iso": "DE"
  },
  {
    "name": "Xianyang",
    "city": "Xi'an",
    "country": "China",
    "iata_code": "XIY",
    "_geoloc": {
      "lat": 34.447119,
      "lng": 108.751592
    },
    "links_count": 563,
    "objectID": "3379",
    "country_iso": "CN"
  },
  {
    "name": "Son Sant Joan",
    "city": "Palma de Mallorca",
    "country": "Spain",
    "iata_code": "PMI",
    "_geoloc": {
      "lat": 39.55361,
      "lng": 2.727778
    },
    "links_count": 548,
    "objectID": "3998",
    "country_iso": "ES"
  },
  {
    "name": "Wujiaba",
    "city": "Kunming",
    "country": "China",
    "iata_code": "KMG",
    "_geoloc": {
      "lat": 24.992364,
      "lng": 102.743536
    },
    "links_count": 545,
    "objectID": "3382",
    "country_iso": "CN"
  },
  {
    "name": "Jiangbei",
    "city": "Chongqing",
    "country": "China",
    "iata_code": "CKG",
    "_geoloc": {
      "lat": 29.719217,
      "lng": 106.641678
    },
    "links_count": 540,
    "objectID": "3393",
    "country_iso": "CN"
  },
  {
    "name": "Indira Gandhi International Airport",
    "city": "Delhi",
    "country": "India",
    "iata_code": "DEL",
    "_geoloc": {
      "lat": 28.5665,
      "lng": 77.103088
    },
    "links_count": 527,
    "objectID": "3093",
    "country_iso": "IN"
  },
  {
    "name": "Taoyuan International Airport",
    "city": "Taipei",
    "country": "Taiwan",
    "iata_code": "TPE",
    "_geoloc": {
      "lat": 25.077731,
      "lng": 121.232822
    },
    "links_count": 527,
    "objectID": "2276",
    "country_iso": "TW"
  },
  {
    "name": "Kuala Lumpur International Airport",
    "city": "Kuala Lumpur",
    "country": "Malaysia",
    "iata_code": "KUL",
    "_geoloc": {
      "lat": 2.745578,
      "lng": 101.709917
    },
    "links_count": 514,
    "objectID": "3304",
    "country_iso": "MY"
  },
  {
    "name": "Phoenix Sky Harbor International Airport",
    "city": "Phoenix",
    "country": "United States",
    "iata_code": "PHX",
    "_geoloc": {
      "lat": 33.434278,
      "lng": -112.011583
    },
    "links_count": 508,
    "objectID": "3462",
    "country_iso": "US"
  },
  {
    "name": "Xiaoshan",
    "city": "Hangzhou",
    "country": "China",
    "iata_code": "HGH",
    "_geoloc": {
      "lat": 30.229503,
      "lng": 120.434453
    },
    "links_count": 506,
    "objectID": "3386",
    "country_iso": "CN"
  },
  {
    "name": "Newark Liberty International Airport",
    "city": "Newark",
    "country": "United States",
    "iata_code": "EWR",
    "_geoloc": {
      "lat": 40.6925,
      "lng": -74.168667
    },
    "links_count": 505,
    "objectID": "3494",
    "country_iso": "US"
  },
  {
    "name": "San Francisco International Airport",
    "city": "San Francisco",
    "country": "United States",
    "iata_code": "SFO",
    "_geoloc": {
      "lat": 37.618972,
      "lng": -122.374889
    },
    "links_count": 499,
    "objectID": "3469",
    "country_iso": "US"
  },
  {
    "name": "Mc Carran International Airport",
    "city": "Las Vegas",
    "country": "United States",
    "iata_code": "LAS",
    "_geoloc": {
      "lat": 36.080056,
      "lng": -115.15225
    },
    "links_count": 498,
    "objectID": "3877",
    "country_iso": "US"
  },
  {
    "name": "Zurich",
    "city": "Zurich",
    "country": "Switzerland",
    "iata_code": "ZRH",
    "_geoloc": {
      "lat": 47.464722,
      "lng": 8.549167
    },
    "links_count": 494,
    "objectID": "1678",
    "country_iso": "CH"
  },
  {
    "name": "George Bush Intercontinental",
    "city": "Houston",
    "country": "United States",
    "iata_code": "IAH",
    "_geoloc": {
      "lat": 29.984433,
      "lng": -95.341442
    },
    "links_count": 485,
    "objectID": "3550",
    "country_iso": "US"
  },
  {
    "name": "Licenciado Benito Juarez International Airport",
    "city": "Mexico City",
    "country": "Mexico",
    "iata_code": "MEX",
    "_geoloc": {
      "lat": 19.436303,
      "lng": -99.072097
    },
    "links_count": 485,
    "objectID": "1824",
    "country_iso": "MX"
  },
  {
    "name": "Abu Dhabi International Airport",
    "city": "Abu Dhabi",
    "country": "United Arab Emirates",
    "iata_code": "AUH",
    "_geoloc": {
      "lat": 24.432972,
      "lng": 54.651138
    },
    "links_count": 477,
    "objectID": "2179",
    "country_iso": "AE"
  },
  {
    "name": "Orlando International Airport",
    "city": "Orlando",
    "country": "United States",
    "iata_code": "MCO",
    "_geoloc": {
      "lat": 28.429394,
      "lng": -81.308994
    },
    "links_count": 475,
    "objectID": "3878",
    "country_iso": "US"
  },
  {
    "name": "Baoan International Airport",
    "city": "Shenzhen",
    "country": "China",
    "iata_code": "SZX",
    "_geoloc": {
      "lat": 22.639258,
      "lng": 113.810664
    },
    "links_count": 467,
    "objectID": "3374",
    "country_iso": "CN"
  },
  {
    "name": "Gaoqi",
    "city": "Xiamen",
    "country": "China",
    "iata_code": "XMN",
    "_geoloc": {
      "lat": 24.544036,
      "lng": 118.127739
    },
    "links_count": 466,
    "objectID": "3383",
    "country_iso": "CN"
  },
  {
    "name": "Kastrup",
    "city": "Copenhagen",
    "country": "Denmark",
    "iata_code": "CPH",
    "_geoloc": {
      "lat": 55.617917,
      "lng": 12.655972
    },
    "links_count": 457,
    "objectID": "609",
    "country_iso": "DK"
  },
  {
    "name": "Chhatrapati Shivaji International Airport",
    "city": "Mumbai",
    "country": "India",
    "iata_code": "BOM",
    "_geoloc": {
      "lat": 19.088686,
      "lng": 72.867919
    },
    "links_count": 452,
    "objectID": "2997",
    "country_iso": "IN"
  },
  {
    "name": "Arlanda",
    "city": "Stockholm",
    "country": "Sweden",
    "iata_code": "ARN",
    "_geoloc": {
      "lat": 59.651944,
      "lng": 17.918611
    },
    "links_count": 439,
    "objectID": "737",
    "country_iso": "SE"
  },
  {
    "name": "Lisboa",
    "city": "Lisbon",
    "country": "Portugal",
    "iata_code": "LIS",
    "_geoloc": {
      "lat": 38.781311,
      "lng": -9.135919
    },
    "links_count": 435,
    "objectID": "1638",
    "country_iso": "PT"
  },
  {
    "name": "Detroit Metro Wayne Co",
    "city": "Detroit",
    "country": "United States",
    "iata_code": "DTW",
    "_geoloc": {
      "lat": 42.212444,
      "lng": -83.353389
    },
    "links_count": 433,
    "objectID": "3645",
    "country_iso": "US"
  },
  {
    "name": "Minneapolis St Paul International Airport",
    "city": "Minneapolis",
    "country": "United States",
    "iata_code": "MSP",
    "_geoloc": {
      "lat": 44.881956,
      "lng": -93.221767
    },
    "links_count": 430,
    "objectID": "3858",
    "country_iso": "US"
  },
  {
    "name": "General Edward Lawrence Logan International Airport",
    "city": "Boston",
    "country": "United States",
    "iata_code": "BOS",
    "_geoloc": {
      "lat": 42.364347,
      "lng": -71.005181
    },
    "links_count": 424,
    "objectID": "3448",
    "country_iso": "US"
  },
  {
    "name": "Tegel",
    "city": "Berlin",
    "country": "Germany",
    "iata_code": "TXL",
    "_geoloc": {
      "lat": 52.559686,
      "lng": 13.287711
    },
    "links_count": 418,
    "objectID": "351",
    "country_iso": "DE"
  },
  {
    "name": "Dublin",
    "city": "Dublin",
    "country": "Ireland",
    "iata_code": "DUB",
    "_geoloc": {
      "lat": 53.421333,
      "lng": -6.270075
    },
    "links_count": 414,
    "objectID": "599",
    "country_iso": "IE"
  },
  {
    "name": "Hongqiao International Airport",
    "city": "Shanghai",
    "country": "China",
    "iata_code": "SHA",
    "_geoloc": {
      "lat": 31.197875,
      "lng": 121.336319
    },
    "links_count": 411,
    "objectID": "3391",
    "country_iso": "CN"
  },
  {
    "name": "Sydney International Airport",
    "city": "Sydney",
    "country": "Australia",
    "iata_code": "SYD",
    "_geoloc": {
      "lat": -33.946111,
      "lng": 151.177222
    },
    "links_count": 410,
    "objectID": "3361",
    "country_iso": "AU"
  },
  {
    "name": "Malaga",
    "city": "Malaga",
    "country": "Spain",
    "iata_code": "AGP",
    "_geoloc": {
      "lat": 36.6749,
      "lng": -4.499106
    },
    "links_count": 410,
    "objectID": "1230",
    "country_iso": "ES"
  },
  {
    "name": "Orly",
    "city": "Paris",
    "country": "France",
    "iata_code": "ORY",
    "_geoloc": {
      "lat": 48.725278,
      "lng": 2.359444
    },
    "links_count": 404,
    "objectID": "1386",
    "country_iso": "FR"
  },
  {
    "name": "Eleftherios Venizelos International Airport",
    "city": "Athens",
    "country": "Greece",
    "iata_code": "ATH",
    "_geoloc": {
      "lat": 37.936358,
      "lng": 23.944467
    },
    "links_count": 403,
    "objectID": "3941",
    "country_iso": "GR"
  },
  {
    "name": "Seattle Tacoma International Airport",
    "city": "Seattle",
    "country": "United States",
    "iata_code": "SEA",
    "_geoloc": {
      "lat": 47.449,
      "lng": -122.309306
    },
    "links_count": 403,
    "objectID": "3577",
    "country_iso": "US"
  },
  {
    "name": "Sheremetyevo",
    "city": "Moscow",
    "country": "Russia",
    "iata_code": "SVO",
    "_geoloc": {
      "lat": 55.972642,
      "lng": 37.414589
    },
    "links_count": 397,
    "objectID": "2985",
    "country_iso": "RU"
  },
  {
    "name": "Ronald Reagan Washington Natl",
    "city": "Washington",
    "country": "United States",
    "iata_code": "DCA",
    "_geoloc": {
      "lat": 38.852083,
      "lng": -77.037722
    },
    "links_count": 388,
    "objectID": "3520",
    "country_iso": "US"
  },
  {
    "name": "Guarulhos Gov Andre Franco Montouro",
    "city": "Sao Paulo",
    "country": "Brazil",
    "iata_code": "GRU",
    "_geoloc": {
      "lat": -23.432075,
      "lng": -46.469511
    },
    "links_count": 387,
    "objectID": "2564",
    "country_iso": "BR"
  },
  {
    "name": "Washington Dulles International Airport",
    "city": "Washington",
    "country": "United States",
    "iata_code": "IAD",
    "_geoloc": {
      "lat": 38.944533,
      "lng": -77.455811
    },
    "links_count": 386,
    "objectID": "3714",
    "country_iso": "US"
  },
  {
    "name": "Ninoy Aquino International Airport",
    "city": "Manila",
    "country": "Philippines",
    "iata_code": "MNL",
    "_geoloc": {
      "lat": 14.508647,
      "lng": 121.019581
    },
    "links_count": 386,
    "objectID": "2397",
    "country_iso": "PH"
  },
  {
    "name": "Malpensa",
    "city": "Milano",
    "country": "Italy",
    "iata_code": "MXP",
    "_geoloc": {
      "lat": 45.630606,
      "lng": 8.728111
    },
    "links_count": 386,
    "objectID": "1524",
    "country_iso": "IT"
  },
  {
    "name": "Huanghua",
    "city": "Changcha",
    "country": "China",
    "iata_code": "CSX",
    "_geoloc": {
      "lat": 28.189158,
      "lng": 113.219633
    },
    "links_count": 377,
    "objectID": "3371",
    "country_iso": "CN"
  },
  {
    "name": "Doha International Airport",
    "city": "Doha",
    "country": "Qatar",
    "iata_code": "DOH",
    "_geoloc": {
      "lat": 25.261125,
      "lng": 51.565056
    },
    "links_count": 377,
    "objectID": "2241",
    "country_iso": "QA"
  },
  {
    "name": "King Abdulaziz International Airport",
    "city": "Jeddah",
    "country": "Saudi Arabia",
    "iata_code": "JED",
    "_geoloc": {
      "lat": 21.679564,
      "lng": 39.156536
    },
    "links_count": 377,
    "objectID": "2072",
    "country_iso": "SA"
  },
  {
    "name": "Liuting",
    "city": "Qingdao",
    "country": "China",
    "iata_code": "TAO",
    "_geoloc": {
      "lat": 36.266108,
      "lng": 120.374436
    },
    "links_count": 376,
    "objectID": "3390",
    "country_iso": "CN"
  },
  {
    "name": "Fort Lauderdale Hollywood International Airport",
    "city": "Fort Lauderdale",
    "country": "United States",
    "iata_code": "FLL",
    "_geoloc": {
      "lat": 26.072583,
      "lng": -80.15275
    },
    "links_count": 374,
    "objectID": "3533",
    "country_iso": "US"
  },
  {
    "name": "Tianhe",
    "city": "Wuhan",
    "country": "China",
    "iata_code": "WUH",
    "_geoloc": {
      "lat": 30.783758,
      "lng": 114.2081
    },
    "links_count": 374,
    "objectID": "3376",
    "country_iso": "CN"
  },
  {
    "name": "Pierre Elliott Trudeau International Airport",
    "city": "Montreal",
    "country": "Canada",
    "iata_code": "YUL",
    "_geoloc": {
      "lat": 45.470556,
      "lng": -73.740833
    },
    "links_count": 371,
    "objectID": "146",
    "country_iso": "CA"
  },
  {
    "name": "Pulkovo",
    "city": "St. Petersburg",
    "country": "Russia",
    "iata_code": "LED",
    "_geoloc": {
      "lat": 59.800292,
      "lng": 30.262503
    },
    "links_count": 368,
    "objectID": "2948",
    "country_iso": "RU"
  },
  {
    "name": "Soekarno Hatta International Airport",
    "city": "Jakarta",
    "country": "Indonesia",
    "iata_code": "CGK",
    "_geoloc": {
      "lat": -6.125567,
      "lng": 106.655897
    },
    "links_count": 367,
    "objectID": "3275",
    "country_iso": "ID"
  },
  {
    "name": "Gardermoen",
    "city": "Oslo",
    "country": "Norway",
    "iata_code": "OSL",
    "_geoloc": {
      "lat": 60.193917,
      "lng": 11.100361
    },
    "links_count": 363,
    "objectID": "644",
    "country_iso": "NO"
  },
  {
    "name": "Ruzyne",
    "city": "Prague",
    "country": "Czech Republic",
    "iata_code": "PRG",
    "_geoloc": {
      "lat": 50.100833,
      "lng": 14.26
    },
    "links_count": 361,
    "objectID": "1587",
    "country_iso": "CZ"
  },
  {
    "name": "Xinzheng",
    "city": "Zhengzhou",
    "country": "China",
    "iata_code": "CGO",
    "_geoloc": {
      "lat": 34.519672,
      "lng": 113.840889
    },
    "links_count": 348,
    "objectID": "3375",
    "country_iso": "CN"
  },
  {
    "name": "Stansted",
    "city": "London",
    "country": "United Kingdom",
    "iata_code": "STN",
    "_geoloc": {
      "lat": 51.885,
      "lng": 0.235
    },
    "links_count": 343,
    "objectID": "548",
    "country_iso": "GB"
  },
  {
    "name": "Lukou",
    "city": "Nanjing",
    "country": "China",
    "iata_code": "NKG",
    "_geoloc": {
      "lat": 31.742042,
      "lng": 118.862025
    },
    "links_count": 330,
    "objectID": "3388",
    "country_iso": "CN"
  },
  {
    "name": "Geneve Cointrin",
    "city": "Geneva",
    "country": "Switzerland",
    "iata_code": "GVA",
    "_geoloc": {
      "lat": 46.238064,
      "lng": 6.10895
    },
    "links_count": 329,
    "objectID": "1665",
    "country_iso": "CH"
  },
  {
    "name": "Johannesburg International Airport",
    "city": "Johannesburg",
    "country": "South Africa",
    "iata_code": "JNB",
    "_geoloc": {
      "lat": -26.139166,
      "lng": 28.246
    },
    "links_count": 321,
    "objectID": "813",
    "country_iso": "ZA"
  },
  {
    "name": "Hamburg",
    "city": "Hamburg",
    "country": "Germany",
    "iata_code": "HAM",
    "_geoloc": {
      "lat": 53.630389,
      "lng": 9.988228
    },
    "links_count": 321,
    "objectID": "342",
    "country_iso": "DE"
  },
  {
    "name": "Helsinki Vantaa",
    "city": "Helsinki",
    "country": "Finland",
    "iata_code": "HEL",
    "_geoloc": {
      "lat": 60.317222,
      "lng": 24.963333
    },
    "links_count": 320,
    "objectID": "421",
    "country_iso": "FI"
  },
  {
    "name": "Tenerife Sur",
    "city": "Tenerife",
    "country": "Spain",
    "iata_code": "TFS",
    "_geoloc": {
      "lat": 28.044475,
      "lng": -16.572489
    },
    "links_count": 318,
    "objectID": "1056",
    "country_iso": "ES"
  },
  {
    "name": "La Guardia",
    "city": "New York",
    "country": "United States",
    "iata_code": "LGA",
    "_geoloc": {
      "lat": 40.777245,
      "lng": -73.872608
    },
    "links_count": 316,
    "objectID": "3697",
    "country_iso": "US"
  },
  {
    "name": "Tokyo International Airport",
    "city": "Tokyo",
    "country": "Japan",
    "iata_code": "HND",
    "_geoloc": {
      "lat": 35.552258,
      "lng": 139.779694
    },
    "links_count": 315,
    "objectID": "2359",
    "country_iso": "JP"
  },
  {
    "name": "Vancouver International Airport",
    "city": "Vancouver",
    "country": "Canada",
    "iata_code": "YVR",
    "_geoloc": {
      "lat": 49.193889,
      "lng": -123.184444
    },
    "links_count": 315,
    "objectID": "156",
    "country_iso": "CA"
  },
  {
    "name": "Alicante",
    "city": "Alicante",
    "country": "Spain",
    "iata_code": "ALC",
    "_geoloc": {
      "lat": 38.282169,
      "lng": -0.558156
    },
    "links_count": 314,
    "objectID": "1212",
    "country_iso": "ES"
  },
  {
    "name": "Cancun International Airport",
    "city": "Cancun",
    "country": "Mexico",
    "iata_code": "CUN",
    "_geoloc": {
      "lat": 21.036528,
      "lng": -86.877083
    },
    "links_count": 311,
    "objectID": "1852",
    "country_iso": "MX"
  },
  {
    "name": "Gran Canaria",
    "city": "Gran Canaria",
    "country": "Spain",
    "iata_code": "LPA",
    "_geoloc": {
      "lat": 27.931886,
      "lng": -15.386586
    },
    "links_count": 308,
    "objectID": "1054",
    "country_iso": "ES"
  },
  {
    "name": "Eldorado International Airport",
    "city": "Bogota",
    "country": "Colombia",
    "iata_code": "BOG",
    "_geoloc": {
      "lat": 4.701594,
      "lng": -74.146947
    },
    "links_count": 307,
    "objectID": "2709",
    "country_iso": "CO"
  },
  {
    "name": "Diwopu",
    "city": "Urumqi",
    "country": "China",
    "iata_code": "URC",
    "_geoloc": {
      "lat": 43.907106,
      "lng": 87.474244
    },
    "links_count": 306,
    "objectID": "3399",
    "country_iso": "CN"
  },
  {
    "name": "Kansai",
    "city": "Osaka",
    "country": "Japan",
    "iata_code": "KIX",
    "_geoloc": {
      "lat": 34.4347222,
      "lng": 135.244167
    },
    "links_count": 304,
    "objectID": "3992",
    "country_iso": "JP"
  },
  {
    "name": "Cairo International Airport",
    "city": "Cairo",
    "country": "Egypt",
    "iata_code": "CAI",
    "_geoloc": {
      "lat": 30.121944,
      "lng": 31.405556
    },
    "links_count": 303,
    "objectID": "1128",
    "country_iso": "EG"
  },
  {
    "name": "Brisbane International Airport",
    "city": "Brisbane",
    "country": "Australia",
    "iata_code": "BNE",
    "_geoloc": {
      "lat": -27.384167,
      "lng": 153.1175
    },
    "links_count": 296,
    "objectID": "3320",
    "country_iso": "AU"
  },
  {
    "name": "Binhai",
    "city": "Tianjin",
    "country": "China",
    "iata_code": "TSN",
    "_geoloc": {
      "lat": 39.124353,
      "lng": 117.346183
    },
    "links_count": 294,
    "objectID": "3368",
    "country_iso": "CN"
  },
  {
    "name": "Sabiha Gokcen",
    "city": "Istanbul",
    "country": "Turkey",
    "iata_code": "SAW",
    "_geoloc": {
      "lat": 40.898553,
      "lng": 29.309219
    },
    "links_count": 290,
    "objectID": "4317",
    "country_iso": "TR"
  },
  {
    "name": "Baltimore Washington International Airport",
    "city": "Baltimore",
    "country": "United States",
    "iata_code": "BWI",
    "_geoloc": {
      "lat": 39.175361,
      "lng": -76.668333
    },
    "links_count": 286,
    "objectID": "3849",
    "country_iso": "US"
  },
  {
    "name": "Zhoushuizi",
    "city": "Dalian",
    "country": "China",
    "iata_code": "DLC",
    "_geoloc": {
      "lat": 38.965667,
      "lng": 121.5386
    },
    "links_count": 285,
    "objectID": "3404",
    "country_iso": "CN"
  },
  {
    "name": "Salt Lake City International Airport",
    "city": "Salt Lake City",
    "country": "United States",
    "iata_code": "SLC",
    "_geoloc": {
      "lat": 40.788389,
      "lng": -111.977772
    },
    "links_count": 278,
    "objectID": "3536",
    "country_iso": "US"
  },
  {
    "name": "Tampa International Airport",
    "city": "Tampa",
    "country": "United States",
    "iata_code": "TPA",
    "_geoloc": {
      "lat": 27.975472,
      "lng": -82.53325
    },
    "links_count": 276,
    "objectID": "3646",
    "country_iso": "US"
  },
  {
    "name": "King Khaled International Airport",
    "city": "Riyadh",
    "country": "Saudi Arabia",
    "iata_code": "RUH",
    "_geoloc": {
      "lat": 24.95764,
      "lng": 46.698776
    },
    "links_count": 276,
    "objectID": "2082",
    "country_iso": "SA"
  },
  {
    "name": "Saint Exupery",
    "city": "Lyon",
    "country": "France",
    "iata_code": "LYS",
    "_geoloc": {
      "lat": 45.726387,
      "lng": 5.090833
    },
    "links_count": 275,
    "objectID": "1335",
    "country_iso": "FR"
  },
  {
    "name": "Longdongbao",
    "city": "Guiyang",
    "country": "China",
    "iata_code": "KWE",
    "_geoloc": {
      "lat": 26.538522,
      "lng": 106.800703
    },
    "links_count": 274,
    "objectID": "3394",
    "country_iso": "CN"
  },
  {
    "name": "Stuttgart",
    "city": "Stuttgart",
    "country": "Germany",
    "iata_code": "STR",
    "_geoloc": {
      "lat": 48.689878,
      "lng": 9.221964
    },
    "links_count": 273,
    "objectID": "350",
    "country_iso": "DE"
  },
  {
    "name": "Shenyang Taoxian International Airport",
    "city": "Shenyang",
    "country": "China",
    "iata_code": "SHE",
    "_geoloc": {
      "lat": 41.3824,
      "lng": 123.2901
    },
    "links_count": 272,
    "objectID": "4144",
    "country_iso": "CN"
  },
  {
    "name": "Chicago Midway International Airport",
    "city": "Chicago",
    "country": "United States",
    "iata_code": "MDW",
    "_geoloc": {
      "lat": 41.785972,
      "lng": -87.752417
    },
    "links_count": 271,
    "objectID": "3747",
    "country_iso": "US"
  },
  {
    "name": "Ben Gurion",
    "city": "Tel-aviv",
    "country": "Israel",
    "iata_code": "TLV",
    "_geoloc": {
      "lat": 32.011389,
      "lng": 34.886667
    },
    "links_count": 271,
    "objectID": "1590",
    "country_iso": "IL"
  },
  {
    "name": "Jinan",
    "city": "Jinan",
    "country": "China",
    "iata_code": "TNA",
    "_geoloc": {
      "lat": 36.857214,
      "lng": 117.215992
    },
    "links_count": 270,
    "objectID": "4108",
    "country_iso": "CN"
  },
  {
    "name": "Melbourne International Airport",
    "city": "Melbourne",
    "country": "Australia",
    "iata_code": "MEL",
    "_geoloc": {
      "lat": -37.673333,
      "lng": 144.843333
    },
    "links_count": 269,
    "objectID": "3339",
    "country_iso": "AU"
  },
  {
    "name": "Cote D\\\\'Azur",
    "city": "Nice",
    "country": "France",
    "iata_code": "NCE",
    "_geoloc": {
      "lat": 43.658411,
      "lng": 7.215872
    },
    "links_count": 269,
    "objectID": "1354",
    "country_iso": "FR"
  },
  {
    "name": "Changle",
    "city": "Fuzhou",
    "country": "China",
    "iata_code": "FOC",
    "_geoloc": {
      "lat": 25.935064,
      "lng": 119.663272
    },
    "links_count": 266,
    "objectID": "3385",
    "country_iso": "CN"
  },
  {
    "name": "Koln Bonn",
    "city": "Cologne",
    "country": "Germany",
    "iata_code": "CGN",
    "_geoloc": {
      "lat": 50.865917,
      "lng": 7.142744
    },
    "links_count": 265,
    "objectID": "344",
    "country_iso": "DE"
  },
  {
    "name": "Provence",
    "city": "Marseille",
    "country": "France",
    "iata_code": "MRS",
    "_geoloc": {
      "lat": 43.435555,
      "lng": 5.213611
    },
    "links_count": 265,
    "objectID": "1353",
    "country_iso": "FR"
  },
  {
    "name": "Birmingham",
    "city": "Birmingham",
    "country": "United Kingdom",
    "iata_code": "BHX",
    "_geoloc": {
      "lat": 52.453856,
      "lng": -1.748028
    },
    "links_count": 264,
    "objectID": "469",
    "country_iso": "GB"
  },
  {
    "name": "Taiping",
    "city": "Harbin",
    "country": "China",
    "iata_code": "HRB",
    "_geoloc": {
      "lat": 45.623403,
      "lng": 126.250328
    },
    "links_count": 259,
    "objectID": "3400",
    "country_iso": "CN"
  },
  {
    "name": "Jomo Kenyatta International Airport",
    "city": "Nairobi",
    "country": "Kenya",
    "iata_code": "NBO",
    "_geoloc": {
      "lat": -1.319167,
      "lng": 36.9275
    },
    "links_count": 258,
    "objectID": "4059",
    "country_iso": "KE"
  },
  {
    "name": "Antalya",
    "city": "Antalya",
    "country": "Turkey",
    "iata_code": "AYT",
    "_geoloc": {
      "lat": 36.898731,
      "lng": 30.800461
    },
    "links_count": 253,
    "objectID": "1688",
    "country_iso": "TR"
  },
  {
    "name": "Mohammed V International Airport",
    "city": "Casablanca",
    "country": "Morocco",
    "iata_code": "CMN",
    "_geoloc": {
      "lat": 33.367467,
      "lng": -7.589967
    },
    "links_count": 250,
    "objectID": "1074",
    "country_iso": "MA"
  },
  {
    "name": "Louis Armstrong New Orleans International Airport",
    "city": "New Orleans",
    "country": "United States",
    "iata_code": "MSY",
    "_geoloc": {
      "lat": 29.993389,
      "lng": -90.258028
    },
    "links_count": 248,
    "objectID": "3861",
    "country_iso": "US"
  },
  {
    "name": "Venezia Tessera",
    "city": "Venice",
    "country": "Italy",
    "iata_code": "VCE",
    "_geoloc": {
      "lat": 45.505278,
      "lng": 12.351944
    },
    "links_count": 245,
    "objectID": "1551",
    "country_iso": "IT"
  },
  {
    "name": "Okecie",
    "city": "Warsaw",
    "country": "Poland",
    "iata_code": "WAW",
    "_geoloc": {
      "lat": 52.16575,
      "lng": 20.967122
    },
    "links_count": 240,
    "objectID": "679",
    "country_iso": "PL"
  },
  {
    "name": "Kuwait International Airport",
    "city": "Kuwait",
    "country": "Kuwait",
    "iata_code": "KWI",
    "_geoloc": {
      "lat": 29.226567,
      "lng": 47.968928
    },
    "links_count": 239,
    "objectID": "2176",
    "country_iso": "KW"
  },
  {
    "name": "San Diego International Airport",
    "city": "San Diego",
    "country": "United States",
    "iata_code": "SAN",
    "_geoloc": {
      "lat": 32.733556,
      "lng": -117.189667
    },
    "links_count": 238,
    "objectID": "3731",
    "country_iso": "US"
  },
  {
    "name": "Edinburgh",
    "city": "Edinburgh",
    "country": "United Kingdom",
    "iata_code": "EDI",
    "_geoloc": {
      "lat": 55.95,
      "lng": -3.3725
    },
    "links_count": 237,
    "objectID": "535",
    "country_iso": "GB"
  },
  {
    "name": "Honolulu International Airport",
    "city": "Honolulu",
    "country": "United States",
    "iata_code": "HNL",
    "_geoloc": {
      "lat": 21.318681,
      "lng": -157.922428
    },
    "links_count": 233,
    "objectID": "3728",
    "country_iso": "US"
  },
  {
    "name": "Catania Fontanarossa",
    "city": "Catania",
    "country": "Italy",
    "iata_code": "CTA",
    "_geoloc": {
      "lat": 37.466781,
      "lng": 15.0664
    },
    "links_count": 233,
    "objectID": "1509",
    "country_iso": "IT"
  },
  {
    "name": "Lanzarote",
    "city": "Las Palmas",
    "country": "Spain",
    "iata_code": "ACE",
    "_geoloc": {
      "lat": 28.945464,
      "lng": -13.605225
    },
    "links_count": 233,
    "objectID": "1055",
    "country_iso": "ES"
  },
  {
    "name": "Portland International Airport",
    "city": "Portland",
    "country": "United States",
    "iata_code": "PDX",
    "_geoloc": {
      "lat": 45.588722,
      "lng": -122.5975
    },
    "links_count": 230,
    "objectID": "3720",
    "country_iso": "US"
  },
  {
    "name": "Jorge Chavez International Airport",
    "city": "Lima",
    "country": "Peru",
    "iata_code": "LIM",
    "_geoloc": {
      "lat": -12.021889,
      "lng": -77.114319
    },
    "links_count": 230,
    "objectID": "2789",
    "country_iso": "PE"
  },
  {
    "name": "Wuxu",
    "city": "Nanning",
    "country": "China",
    "iata_code": "NNG",
    "_geoloc": {
      "lat": 22.608267,
      "lng": 108.172442
    },
    "links_count": 228,
    "objectID": "3373",
    "country_iso": "CN"
  },
  {
    "name": "Calgary International Airport",
    "city": "Calgary",
    "country": "Canada",
    "iata_code": "YYC",
    "_geoloc": {
      "lat": 51.113888,
      "lng": -114.020278
    },
    "links_count": 228,
    "objectID": "178",
    "country_iso": "CA"
  },
  {
    "name": "Henri Coanda",
    "city": "Bucharest",
    "country": "Romania",
    "iata_code": "OTP",
    "_geoloc": {
      "lat": 44.572161,
      "lng": 26.102178
    },
    "links_count": 227,
    "objectID": "1657",
    "country_iso": "RO"
  },
  {
    "name": "Luqa",
    "city": "Malta",
    "country": "Malta",
    "iata_code": "MLA",
    "_geoloc": {
      "lat": 35.857497,
      "lng": 14.4775
    },
    "links_count": 226,
    "objectID": "1606",
    "country_iso": "MT"
  },
  {
    "name": "Queen Alia International Airport",
    "city": "Amman",
    "country": "Jordan",
    "iata_code": "AMM",
    "_geoloc": {
      "lat": 31.722556,
      "lng": 35.993214
    },
    "links_count": 223,
    "objectID": "2170",
    "country_iso": "JO"
  },
  {
    "name": "Lambert St Louis International Airport",
    "city": "St. Louis",
    "country": "United States",
    "iata_code": "STL",
    "_geoloc": {
      "lat": 38.748697,
      "lng": -90.370028
    },
    "links_count": 221,
    "objectID": "3678",
    "country_iso": "US"
  },
  {
    "name": "Wusu",
    "city": "Taiyuan",
    "country": "China",
    "iata_code": "TYN",
    "_geoloc": {
      "lat": 37.746897,
      "lng": 112.628428
    },
    "links_count": 220,
    "objectID": "3369",
    "country_iso": "CN"
  },
  {
    "name": "Nikos Kazantzakis",
    "city": "Heraklion",
    "country": "Greece",
    "iata_code": "HER",
    "_geoloc": {
      "lat": 35.339719,
      "lng": 25.180297
    },
    "links_count": 219,
    "objectID": "1452",
    "country_iso": "GR"
  },
  {
    "name": "Phoenix International Airport",
    "city": "Sanya",
    "country": "China",
    "iata_code": "SYX",
    "_geoloc": {
      "lat": 18.302897,
      "lng": 109.412272
    },
    "links_count": 218,
    "objectID": "4030",
    "country_iso": "CN"
  },
  {
    "name": "Tansonnhat International Airport",
    "city": "Ho Chi Minh City",
    "country": "Vietnam",
    "iata_code": "SGN",
    "_geoloc": {
      "lat": 10.818797,
      "lng": 106.651856
    },
    "links_count": 218,
    "objectID": "3205",
    "country_iso": "VN"
  },
  {
    "name": "Meilan",
    "city": "Haikou",
    "country": "China",
    "iata_code": "HAK",
    "_geoloc": {
      "lat": 19.934856,
      "lng": 110.458961
    },
    "links_count": 215,
    "objectID": "4120",
    "country_iso": "CN"
  },
  {
    "name": "Luton",
    "city": "London",
    "country": "United Kingdom",
    "iata_code": "LTN",
    "_geoloc": {
      "lat": 51.874722,
      "lng": -0.368333
    },
    "links_count": 214,
    "objectID": "492",
    "country_iso": "GB"
  },
  {
    "name": "Liangjiang",
    "city": "Guilin",
    "country": "China",
    "iata_code": "KWL",
    "_geoloc": {
      "lat": 25.218106,
      "lng": 110.039197
    },
    "links_count": 214,
    "objectID": "3372",
    "country_iso": "CN"
  },
  {
    "name": "Bole International Airport",
    "city": "Addis Ababa",
    "country": "Ethiopia",
    "iata_code": "ADD",
    "_geoloc": {
      "lat": 8.977889,
      "lng": 38.799319
    },
    "links_count": 214,
    "objectID": "1107",
    "country_iso": "ET"
  },
  {
    "name": "Auckland International Airport",
    "city": "Auckland",
    "country": "New Zealand",
    "iata_code": "AKL",
    "_geoloc": {
      "lat": -37.008056,
      "lng": 174.791667
    },
    "links_count": 213,
    "objectID": "2006",
    "country_iso": "NZ"
  },
  {
    "name": "Tocumen International Airport",
    "city": "Panama City",
    "country": "Panama",
    "iata_code": "PTY",
    "_geoloc": {
      "lat": 9.071364,
      "lng": -79.383453
    },
    "links_count": 212,
    "objectID": "1871",
    "country_iso": "PA"
  },
  {
    "name": "Chennai International Airport",
    "city": "Chennai",
    "country": "India",
    "iata_code": "MAA",
    "_geoloc": {
      "lat": 12.994414,
      "lng": 80.180517
    },
    "links_count": 211,
    "objectID": "3144",
    "country_iso": "IN"
  },
  {
    "name": "Faro",
    "city": "Faro",
    "country": "Portugal",
    "iata_code": "FAO",
    "_geoloc": {
      "lat": 37.014425,
      "lng": -7.965911
    },
    "links_count": 211,
    "objectID": "1626",
    "country_iso": "PT"
  },
  {
    "name": "Seeb International Airport",
    "city": "Muscat",
    "country": "Oman",
    "iata_code": "MCT",
    "_geoloc": {
      "lat": 23.593278,
      "lng": 58.284444
    },
    "links_count": 208,
    "objectID": "2194",
    "country_iso": "OM"
  },
  {
    "name": "Luis Munoz Marin International Airport",
    "city": "San Juan",
    "country": "Puerto Rico",
    "iata_code": "SJU",
    "_geoloc": {
      "lat": 18.439417,
      "lng": -66.001833
    },
    "links_count": 204,
    "objectID": "2890",
    "country_iso": "PR"
  },
  {
    "name": "Bandaranaike International Colombo",
    "city": "Colombo",
    "country": "Sri Lanka",
    "iata_code": "CMB",
    "_geoloc": {
      "lat": 7.180756,
      "lng": 79.884117
    },
    "links_count": 203,
    "objectID": "3024",
    "country_iso": "LK"
  },
  {
    "name": "Riga International Airport",
    "city": "Riga",
    "country": "Latvia",
    "iata_code": "RIX",
    "_geoloc": {
      "lat": 56.923611,
      "lng": 23.971111
    },
    "links_count": 202,
    "objectID": "3953",
    "country_iso": "LV"
  },
  {
    "name": "Boryspil International Airport",
    "city": "Kiev",
    "country": "Ukraine",
    "iata_code": "KBP",
    "_geoloc": {
      "lat": 50.345,
      "lng": 30.894722
    },
    "links_count": 202,
    "objectID": "2939",
    "country_iso": "UA"
  },
  {
    "name": "Porto",
    "city": "Porto",
    "country": "Portugal",
    "iata_code": "OPO",
    "_geoloc": {
      "lat": 41.248055,
      "lng": -8.681389
    },
    "links_count": 202,
    "objectID": "1636",
    "country_iso": "PT"
  },
  {
    "name": "Ibiza",
    "city": "Ibiza",
    "country": "Spain",
    "iata_code": "IBZ",
    "_geoloc": {
      "lat": 38.872858,
      "lng": 1.373117
    },
    "links_count": 202,
    "objectID": "1225",
    "country_iso": "ES"
  },
  {
    "name": "Bali Ngurah Rai",
    "city": "Denpasar",
    "country": "Indonesia",
    "iata_code": "DPS",
    "_geoloc": {
      "lat": -8.748169,
      "lng": 115.167172
    },
    "links_count": 201,
    "objectID": "3940",
    "country_iso": "ID"
  },
  {
    "name": "Bristol",
    "city": "Bristol",
    "country": "United Kingdom",
    "iata_code": "BRS",
    "_geoloc": {
      "lat": 51.382669,
      "lng": -2.719089
    },
    "links_count": 200,
    "objectID": "490",
    "country_iso": "GB"
  },
  {
    "name": "Koltsovo",
    "city": "Yekaterinburg",
    "country": "Russia",
    "iata_code": "SVX",
    "_geoloc": {
      "lat": 56.743108,
      "lng": 60.802728
    },
    "links_count": 199,
    "objectID": "2975",
    "country_iso": "RU"
  },
  {
    "name": "Presidente Juscelino Kubitschek",
    "city": "Brasilia",
    "country": "Brazil",
    "iata_code": "BSB",
    "_geoloc": {
      "lat": -15.8711,
      "lng": -47.918625
    },
    "links_count": 197,
    "objectID": "2531",
    "country_iso": "BR"
  },
  {
    "name": "Glasgow",
    "city": "Glasgow",
    "country": "United Kingdom",
    "iata_code": "GLA",
    "_geoloc": {
      "lat": 55.871944,
      "lng": -4.433056
    },
    "links_count": 196,
    "objectID": "534",
    "country_iso": "GB"
  },
  {
    "name": "Bangalore",
    "city": "Bangalore",
    "country": "India",
    "iata_code": "BLR",
    "_geoloc": {
      "lat": 12.949986,
      "lng": 77.668206
    },
    "links_count": 195,
    "objectID": "3131",
    "country_iso": "IN"
  },
  {
    "name": "Sharjah International Airport",
    "city": "Sharjah",
    "country": "United Arab Emirates",
    "iata_code": "SHJ",
    "_geoloc": {
      "lat": 25.328575,
      "lng": 55.51715
    },
    "links_count": 195,
    "objectID": "2191",
    "country_iso": "AE"
  },
  {
    "name": "Ferihegy",
    "city": "Budapest",
    "country": "Hungary",
    "iata_code": "BUD",
    "_geoloc": {
      "lat": 47.436933,
      "lng": 19.255592
    },
    "links_count": 195,
    "objectID": "1489",
    "country_iso": "HU"
  },
  {
    "name": "Netaji Subhash Chandra Bose International Airport",
    "city": "Kolkata",
    "country": "India",
    "iata_code": "CCU",
    "_geoloc": {
      "lat": 22.654739,
      "lng": 88.446722
    },
    "links_count": 194,
    "objectID": "3043",
    "country_iso": "IN"
  },
  {
    "name": "Galeao Antonio Carlos Jobim",
    "city": "Rio De Janeiro",
    "country": "Brazil",
    "iata_code": "GIG",
    "_geoloc": {
      "lat": -22.808903,
      "lng": -43.243647
    },
    "links_count": 194,
    "objectID": "2560",
    "country_iso": "BR"
  },
  {
    "name": "Nottingham East Midlands",
    "city": "East Midlands",
    "country": "United Kingdom",
    "iata_code": "EMA",
    "_geoloc": {
      "lat": 52.831111,
      "lng": -1.328056
    },
    "links_count": 192,
    "objectID": "523",
    "country_iso": "GB"
  },
  {
    "name": "Fuerteventura",
    "city": "Fuerteventura",
    "country": "Spain",
    "iata_code": "FUE",
    "_geoloc": {
      "lat": 28.452717,
      "lng": -13.863761
    },
    "links_count": 192,
    "objectID": "1051",
    "country_iso": "ES"
  },
  {
    "name": "Larnaca",
    "city": "Larnaca",
    "country": "Cyprus",
    "iata_code": "LCA",
    "_geoloc": {
      "lat": 34.875117,
      "lng": 33.62485
    },
    "links_count": 190,
    "objectID": "1197",
    "country_iso": "CY"
  },
  {
    "name": "EuroAirport Basel-Mulhouse-Freiburg",
    "city": "Basel",
    "country": "Switzerland",
    "iata_code": "BSL",
    "_geoloc": {
      "lat": 47.59,
      "lng": 7.529167
    },
    "links_count": 189,
    "objectID": "4053",
    "country_iso": "CH"
  },
  {
    "name": "Don Miguel Hidalgo Y Costilla International Airport",
    "city": "Guadalajara",
    "country": "Mexico",
    "iata_code": "GDL",
    "_geoloc": {
      "lat": 20.5218,
      "lng": -103.311167
    },
    "links_count": 185,
    "objectID": "1804",
    "country_iso": "MX"
  },
  {
    "name": "Nantes Atlantique",
    "city": "Nantes",
    "country": "France",
    "iata_code": "NTE",
    "_geoloc": {
      "lat": 47.153189,
      "lng": -1.610725
    },
    "links_count": 183,
    "objectID": "1418",
    "country_iso": "FR"
  },
  {
    "name": "Perth International Airport",
    "city": "Perth",
    "country": "Australia",
    "iata_code": "PER",
    "_geoloc": {
      "lat": -31.940278,
      "lng": 115.966944
    },
    "links_count": 182,
    "objectID": "3351",
    "country_iso": "AU"
  },
  {
    "name": "Simon Bolivar International Airport",
    "city": "Caracas",
    "country": "Venezuela",
    "iata_code": "CCS",
    "_geoloc": {
      "lat": 10.603117,
      "lng": -66.990583
    },
    "links_count": 181,
    "objectID": "2851",
    "country_iso": "VE"
  },
  {
    "name": "Tolmachevo",
    "city": "Novosibirsk",
    "country": "Russia",
    "iata_code": "OVB",
    "_geoloc": {
      "lat": 55.012622,
      "lng": 82.650656
    },
    "links_count": 177,
    "objectID": "4078",
    "country_iso": "RU"
  },
  {
    "name": "Houari Boumediene",
    "city": "Algier",
    "country": "Algeria",
    "iata_code": "ALG",
    "_geoloc": {
      "lat": 36.691014,
      "lng": 3.215408
    },
    "links_count": 176,
    "objectID": "210",
    "country_iso": "DZ"
  },
  {
    "name": "Bologna",
    "city": "Bologna",
    "country": "Italy",
    "iata_code": "BLQ",
    "_geoloc": {
      "lat": 44.535444,
      "lng": 11.288667
    },
    "links_count": 176,
    "objectID": "1538",
    "country_iso": "IT"
  },
  {
    "name": "Carthage",
    "city": "Tunis",
    "country": "Tunisia",
    "iata_code": "TUN",
    "_geoloc": {
      "lat": 36.851033,
      "lng": 10.227217
    },
    "links_count": 175,
    "objectID": "287",
    "country_iso": "TN"
  },
  {
    "name": "Baita Airport",
    "city": "Hohhot",
    "country": "China",
    "iata_code": "HET",
    "_geoloc": {
      "lat": 40.851422,
      "lng": 111.824103
    },
    "links_count": 174,
    "objectID": "6345",
    "country_iso": "CN"
  },
  {
    "name": "Noibai International Airport",
    "city": "Hanoi",
    "country": "Vietnam",
    "iata_code": "HAN",
    "_geoloc": {
      "lat": 21.221192,
      "lng": 105.807178
    },
    "links_count": 174,
    "objectID": "3199",
    "country_iso": "VN"
  },
  {
    "name": "Makedonia",
    "city": "Thessaloniki",
    "country": "Greece",
    "iata_code": "SKG",
    "_geoloc": {
      "lat": 40.519725,
      "lng": 22.97095
    },
    "links_count": 174,
    "objectID": "1486",
    "country_iso": "GR"
  },
  {
    "name": "Changbei International Airport",
    "city": "Nanchang",
    "country": "China",
    "iata_code": "KHN",
    "_geoloc": {
      "lat": 28.865,
      "lng": 115.9
    },
    "links_count": 172,
    "objectID": "3384",
    "country_iso": "CN"
  },
  {
    "name": "Vnukovo",
    "city": "Moscow",
    "country": "Russia",
    "iata_code": "VKO",
    "_geoloc": {
      "lat": 55.591531,
      "lng": 37.261486
    },
    "links_count": 171,
    "objectID": "2988",
    "country_iso": "RU"
  },
  {
    "name": "Beograd",
    "city": "Belgrade",
    "country": "Serbia",
    "iata_code": "BEG",
    "_geoloc": {
      "lat": 44.818444,
      "lng": 20.309139
    },
    "links_count": 171,
    "objectID": "1739",
    "country_iso": "RS"
  },
  {
    "name": "Fukuoka",
    "city": "Fukuoka",
    "country": "Japan",
    "iata_code": "FUK",
    "_geoloc": {
      "lat": 33.585942,
      "lng": 130.450686
    },
    "links_count": 170,
    "objectID": "2305",
    "country_iso": "JP"
  },
  {
    "name": "Bahrain International Airport",
    "city": "Bahrain",
    "country": "Bahrain",
    "iata_code": "BAH",
    "_geoloc": {
      "lat": 26.270834,
      "lng": 50.63361
    },
    "links_count": 170,
    "objectID": "2057",
    "country_iso": "BH"
  },
  {
    "name": "Chubu Centrair International Airport",
    "city": "Nagoya",
    "country": "Japan",
    "iata_code": "NGO",
    "_geoloc": {
      "lat": 34.858414,
      "lng": 136.805408
    },
    "links_count": 169,
    "objectID": "3942",
    "country_iso": "JP"
  },
  {
    "name": "Lanzhou Airport",
    "city": "Lanzhou",
    "country": "China",
    "iata_code": "LHW",
    "_geoloc": {
      "lat": 36.117,
      "lng": 103.617
    },
    "links_count": 168,
    "objectID": "6431",
    "country_iso": "CN"
  },
  {
    "name": "Lishe",
    "city": "Ninbo",
    "country": "China",
    "iata_code": "NGB",
    "_geoloc": {
      "lat": 29.826683,
      "lng": 121.461906
    },
    "links_count": 168,
    "objectID": "3387",
    "country_iso": "CN"
  },
  {
    "name": "Brussels South",
    "city": "Charleroi",
    "country": "Belgium",
    "iata_code": "CRL",
    "_geoloc": {
      "lat": 50.459197,
      "lng": 4.453817
    },
    "links_count": 168,
    "objectID": "304",
    "country_iso": "BE"
  },
  {
    "name": "Rhodes Diagoras",
    "city": "Rhodos",
    "country": "Greece",
    "iata_code": "RHO",
    "_geoloc": {
      "lat": 36.405419,
      "lng": 28.086192
    },
    "links_count": 168,
    "objectID": "1472",
    "country_iso": "GR"
  },
  {
    "name": "Austin Bergstrom International Airport",
    "city": "Austin",
    "country": "United States",
    "iata_code": "AUS",
    "_geoloc": {
      "lat": 30.194528,
      "lng": -97.669889
    },
    "links_count": 167,
    "objectID": "3673",
    "country_iso": "US"
  },
  {
    "name": "Raleigh Durham International Airport",
    "city": "Raleigh-durham",
    "country": "United States",
    "iata_code": "RDU",
    "_geoloc": {
      "lat": 35.877639,
      "lng": -78.787472
    },
    "links_count": 167,
    "objectID": "3626",
    "country_iso": "US"
  },
  {
    "name": "Newcastle",
    "city": "Newcastle",
    "country": "United Kingdom",
    "iata_code": "NCL",
    "_geoloc": {
      "lat": 55.0375,
      "lng": -1.691667
    },
    "links_count": 165,
    "objectID": "521",
    "country_iso": "GB"
  },
  {
    "name": "Schonefeld",
    "city": "Berlin",
    "country": "Germany",
    "iata_code": "SXF",
    "_geoloc": {
      "lat": 52.380001,
      "lng": 13.5225
    },
    "links_count": 165,
    "objectID": "337",
    "country_iso": "DE"
  },
  {
    "name": "Shijiazhuang Daguocun International Airport",
    "city": "Shijiazhuang",
    "country": "China",
    "iata_code": "SJW",
    "_geoloc": {
      "lat": 38.280686,
      "lng": 114.6973
    },
    "links_count": 164,
    "objectID": "6347",
    "country_iso": "CN"
  },
  {
    "name": "Nashville International Airport",
    "city": "Nashville",
    "country": "United States",
    "iata_code": "BNA",
    "_geoloc": {
      "lat": 36.124472,
      "lng": -86.678194
    },
    "links_count": 164,
    "objectID": "3690",
    "country_iso": "US"
  },
  {
    "name": "King Fahd International Airport",
    "city": "Dammam",
    "country": "Saudi Arabia",
    "iata_code": "DMM",
    "_geoloc": {
      "lat": 26.471161,
      "lng": 49.79789
    },
    "links_count": 164,
    "objectID": "2064",
    "country_iso": "SA"
  },
  {
    "name": "Valencia",
    "city": "Valencia",
    "country": "Spain",
    "iata_code": "VLC",
    "_geoloc": {
      "lat": 39.489314,
      "lng": -0.481625
    },
    "links_count": 163,
    "objectID": "1246",
    "country_iso": "ES"
  },
  {
    "name": "Wenzhou Yongqiang Airport",
    "city": "Wenzhou",
    "country": "China",
    "iata_code": "WNZ",
    "_geoloc": {
      "lat": 27.9122,
      "lng": 120.852
    },
    "links_count": 162,
    "objectID": "6392",
    "country_iso": "CN"
  },
  {
    "name": "New Chitose",
    "city": "Sapporo",
    "country": "Japan",
    "iata_code": "CTS",
    "_geoloc": {
      "lat": 42.7752,
      "lng": 141.692283
    },
    "links_count": 162,
    "objectID": "2287",
    "country_iso": "JP"
  },
  {
    "name": "Bergamo Orio Al Serio",
    "city": "Bergamo",
    "country": "Italy",
    "iata_code": "BGY",
    "_geoloc": {
      "lat": 45.673889,
      "lng": 9.704166
    },
    "links_count": 162,
    "objectID": "1525",
    "country_iso": "IT"
  },
  {
    "name": "Cleveland Hopkins International Airport",
    "city": "Cleveland",
    "country": "United States",
    "iata_code": "CLE",
    "_geoloc": {
      "lat": 41.411689,
      "lng": -81.849794
    },
    "links_count": 161,
    "objectID": "3486",
    "country_iso": "US"
  },
  {
    "name": "Blagnac",
    "city": "Toulouse",
    "country": "France",
    "iata_code": "TLS",
    "_geoloc": {
      "lat": 43.629075,
      "lng": 1.363819
    },
    "links_count": 161,
    "objectID": "1273",
    "country_iso": "FR"
  },
  {
    "name": "Beijing Nanyuan Airport",
    "city": "Beijing",
    "country": "China",
    "iata_code": "NAY",
    "_geoloc": {
      "lat": 39.7825,
      "lng": 116.387778
    },
    "links_count": 160,
    "objectID": "6341",
    "country_iso": "CN"
  },
  {
    "name": "Leeds Bradford",
    "city": "Leeds",
    "country": "United Kingdom",
    "iata_code": "LBA",
    "_geoloc": {
      "lat": 53.865897,
      "lng": -1.660569
    },
    "links_count": 160,
    "objectID": "517",
    "country_iso": "GB"
  },
  {
    "name": "Yuzhny",
    "city": "Tashkent",
    "country": "Uzbekistan",
    "iata_code": "TAS",
    "_geoloc": {
      "lat": 41.257861,
      "lng": 69.281186
    },
    "links_count": 160,
    "objectID": "2983",
    "country_iso": "UZ"
  },
  {
    "name": "Gimhae International Airport",
    "city": "Busan",
    "country": "South Korea",
    "iata_code": "PUS",
    "_geoloc": {
      "lat": 35.179528,
      "lng": 128.938222
    },
    "links_count": 160,
    "objectID": "2372",
    "country_iso": "KR"
  },
  {
    "name": "Kansas City International Airport",
    "city": "Kansas City",
    "country": "United States",
    "iata_code": "MCI",
    "_geoloc": {
      "lat": 39.297606,
      "lng": -94.713905
    },
    "links_count": 159,
    "objectID": "3458",
    "country_iso": "US"
  },
  {
    "name": "Arturo Merino Benitez International Airport",
    "city": "Santiago",
    "country": "Chile",
    "iata_code": "SCL",
    "_geoloc": {
      "lat": -33.392975,
      "lng": -70.785803
    },
    "links_count": 158,
    "objectID": "2650",
    "country_iso": "CL"
  },
  {
    "name": "Capodichino",
    "city": "Naples",
    "country": "Italy",
    "iata_code": "NAP",
    "_geoloc": {
      "lat": 40.886033,
      "lng": 14.290781
    },
    "links_count": 158,
    "objectID": "1561",
    "country_iso": "IT"
  },
  {
    "name": "Luogang",
    "city": "Hefei",
    "country": "China",
    "iata_code": "HFE",
    "_geoloc": {
      "lat": 31.780019,
      "lng": 117.298436
    },
    "links_count": 154,
    "objectID": "3389",
    "country_iso": "CN"
  },
  {
    "name": "Hannover",
    "city": "Hannover",
    "country": "Germany",
    "iata_code": "HAJ",
    "_geoloc": {
      "lat": 52.461056,
      "lng": 9.685078
    },
    "links_count": 152,
    "objectID": "352",
    "country_iso": "DE"
  },
  {
    "name": "Pisa",
    "city": "Pisa",
    "country": "Italy",
    "iata_code": "PSA",
    "_geoloc": {
      "lat": 43.683917,
      "lng": 10.39275
    },
    "links_count": 152,
    "objectID": "1562",
    "country_iso": "IT"
  },
  {
    "name": "Cincinnati Northern Kentucky International Airport",
    "city": "Cincinnati",
    "country": "United States",
    "iata_code": "CVG",
    "_geoloc": {
      "lat": 39.048836,
      "lng": -84.667822
    },
    "links_count": 150,
    "objectID": "3488",
    "country_iso": "US"
  },
  {
    "name": "Ministro Pistarini",
    "city": "Buenos Aires",
    "country": "Argentina",
    "iata_code": "EZE",
    "_geoloc": {
      "lat": -34.822222,
      "lng": -58.535833
    },
    "links_count": 149,
    "objectID": "3988",
    "country_iso": "AR"
  },
  {
    "name": "William P Hobby",
    "city": "Houston",
    "country": "United States",
    "iata_code": "HOU",
    "_geoloc": {
      "lat": 29.645419,
      "lng": -95.278889
    },
    "links_count": 149,
    "objectID": "3566",
    "country_iso": "US"
  },
  {
    "name": "Juan Santamaria International Airport",
    "city": "San Jose",
    "country": "Costa Rica",
    "iata_code": "SJO",
    "_geoloc": {
      "lat": 9.993861,
      "lng": -84.208806
    },
    "links_count": 149,
    "objectID": "1885",
    "country_iso": "CR"
  },
  {
    "name": "Pittsburgh International Airport",
    "city": "Pittsburgh",
    "country": "United States",
    "iata_code": "PIT",
    "_geoloc": {
      "lat": 40.491467,
      "lng": -80.232872
    },
    "links_count": 148,
    "objectID": "3570",
    "country_iso": "US"
  },
  {
    "name": "Zia International Airport",
    "city": "Dhaka",
    "country": "Bangladesh",
    "iata_code": "DAC",
    "_geoloc": {
      "lat": 23.843333,
      "lng": 90.397781
    },
    "links_count": 148,
    "objectID": "3076",
    "country_iso": "BD"
  },
  {
    "name": "Hyderabad",
    "city": "Hyderabad",
    "country": "India",
    "iata_code": "HYD",
    "_geoloc": {
      "lat": 17.453117,
      "lng": 78.467586
    },
    "links_count": 147,
    "objectID": "3141",
    "country_iso": "IN"
  },
  {
    "name": "General Mariano Escobedo International Airport",
    "city": "Monterrey",
    "country": "Mexico",
    "iata_code": "MTY",
    "_geoloc": {
      "lat": 25.778489,
      "lng": -100.106878
    },
    "links_count": 145,
    "objectID": "1825",
    "country_iso": "MX"
  },
  {
    "name": "Menara",
    "city": "Marrakech",
    "country": "Morocco",
    "iata_code": "RAK",
    "_geoloc": {
      "lat": 31.606886,
      "lng": -8.0363
    },
    "links_count": 145,
    "objectID": "1075",
    "country_iso": "MA"
  },
  {
    "name": "Punta Cana International Airport",
    "city": "Punta Cana",
    "country": "Dominican Republic",
    "iata_code": "PUJ",
    "_geoloc": {
      "lat": 18.567367,
      "lng": -68.363431
    },
    "links_count": 143,
    "objectID": "1760",
    "country_iso": "DO"
  },
  {
    "name": "Luxembourg",
    "city": "Luxemburg",
    "country": "Luxembourg",
    "iata_code": "LUX",
    "_geoloc": {
      "lat": 49.626575,
      "lng": 6.211517
    },
    "links_count": 140,
    "objectID": "629",
    "country_iso": "LU"
  },
  {
    "name": "Edmonton International Airport",
    "city": "Edmonton",
    "country": "Canada",
    "iata_code": "YEG",
    "_geoloc": {
      "lat": 53.309723,
      "lng": -113.579722
    },
    "links_count": 139,
    "objectID": "49",
    "country_iso": "CA"
  },
  {
    "name": "Indianapolis International Airport",
    "city": "Indianapolis",
    "country": "United States",
    "iata_code": "IND",
    "_geoloc": {
      "lat": 39.717331,
      "lng": -86.294383
    },
    "links_count": 138,
    "objectID": "3585",
    "country_iso": "US"
  },
  {
    "name": "Phuket International Airport",
    "city": "Phuket",
    "country": "Thailand",
    "iata_code": "HKT",
    "_geoloc": {
      "lat": 8.1132,
      "lng": 98.316872
    },
    "links_count": 138,
    "objectID": "3179",
    "country_iso": "TH"
  },
  {
    "name": "Flesland",
    "city": "Bergen",
    "country": "Norway",
    "iata_code": "BGO",
    "_geoloc": {
      "lat": 60.293386,
      "lng": 5.218142
    },
    "links_count": 137,
    "objectID": "636",
    "country_iso": "NO"
  },
  {
    "name": "San Antonio International Airport",
    "city": "San Antonio",
    "country": "United States",
    "iata_code": "SAT",
    "_geoloc": {
      "lat": 29.533694,
      "lng": -98.469778
    },
    "links_count": 136,
    "objectID": "3621",
    "country_iso": "US"
  },
  {
    "name": "Eindhoven",
    "city": "Eindhoven",
    "country": "Netherlands",
    "iata_code": "EIN",
    "_geoloc": {
      "lat": 51.450139,
      "lng": 5.374528
    },
    "links_count": 135,
    "objectID": "585",
    "country_iso": "NL"
  },
  {
    "name": "Don Muang International Airport",
    "city": "Bangkok",
    "country": "Thailand",
    "iata_code": "DMK",
    "_geoloc": {
      "lat": 13.912583,
      "lng": 100.60675
    },
    "links_count": 134,
    "objectID": "3157",
    "country_iso": "TH"
  },
  {
    "name": "Almaty",
    "city": "Alma-ata",
    "country": "Kazakhstan",
    "iata_code": "ALA",
    "_geoloc": {
      "lat": 43.352072,
      "lng": 77.040508
    },
    "links_count": 134,
    "objectID": "2908",
    "country_iso": "KZ"
  },
  {
    "name": "Merignac",
    "city": "Bordeaux",
    "country": "France",
    "iata_code": "BOD",
    "_geoloc": {
      "lat": 44.828335,
      "lng": -0.715556
    },
    "links_count": 134,
    "objectID": "1264",
    "country_iso": "FR"
  },
  {
    "name": "Leopold Sedar Senghor International Airport",
    "city": "Dakar",
    "country": "Senegal",
    "iata_code": "DKR",
    "_geoloc": {
      "lat": 14.739708,
      "lng": -17.490225
    },
    "links_count": 134,
    "objectID": "1084",
    "country_iso": "SN"
  },
  {
    "name": "Rafic Hariri International Airport",
    "city": "Beirut",
    "country": "Lebanon",
    "iata_code": "BEY",
    "_geoloc": {
      "lat": 33.820931,
      "lng": 35.488389
    },
    "links_count": 133,
    "objectID": "2177",
    "country_iso": "LB"
  },
  {
    "name": "Adnan Menderes",
    "city": "Izmir",
    "country": "Turkey",
    "iata_code": "ADB",
    "_geoloc": {
      "lat": 38.292392,
      "lng": 27.156953
    },
    "links_count": 133,
    "objectID": "1706",
    "country_iso": "TR"
  },
  {
    "name": "Sofia",
    "city": "Sofia",
    "country": "Bulgaria",
    "iata_code": "SOF",
    "_geoloc": {
      "lat": 42.695194,
      "lng": 23.406167
    },
    "links_count": 132,
    "objectID": "1194",
    "country_iso": "BG"
  },
  {
    "name": "Changchun",
    "city": "Changchun",
    "country": "China",
    "iata_code": "CGQ",
    "_geoloc": {
      "lat": 43.5412,
      "lng": 125.1201
    },
    "links_count": 131,
    "objectID": "4380",
    "country_iso": "CN"
  },
  {
    "name": "Yinchuan",
    "city": "Yinchuan",
    "country": "China",
    "iata_code": "INC",
    "_geoloc": {
      "lat": 38.481944,
      "lng": 106.009167
    },
    "links_count": 131,
    "objectID": "4085",
    "country_iso": "CN"
  },
  {
    "name": "Juanda",
    "city": "Surabaya",
    "country": "Indonesia",
    "iata_code": "SUB",
    "_geoloc": {
      "lat": -7.379831,
      "lng": 112.786858
    },
    "links_count": 131,
    "objectID": "3928",
    "country_iso": "ID"
  },
  {
    "name": "Lijiang Airport",
    "city": "Lijiang",
    "country": "China",
    "iata_code": "LJG",
    "_geoloc": {
      "lat": 26.883333,
      "lng": 100.23333
    },
    "links_count": 129,
    "objectID": "4033",
    "country_iso": "CN"
  },
  {
    "name": "Kaohsiung International Airport",
    "city": "Kaohsiung",
    "country": "Taiwan",
    "iata_code": "KHH",
    "_geoloc": {
      "lat": 22.577094,
      "lng": 120.350006
    },
    "links_count": 129,
    "objectID": "2264",
    "country_iso": "TW"
  },
  {
    "name": "City",
    "city": "London",
    "country": "United Kingdom",
    "iata_code": "LCY",
    "_geoloc": {
      "lat": 51.505278,
      "lng": 0.055278
    },
    "links_count": 128,
    "objectID": "503",
    "country_iso": "GB"
  },
  {
    "name": "Mashhad",
    "city": "Mashhad",
    "country": "Iran",
    "iata_code": "MHD",
    "_geoloc": {
      "lat": 36.234,
      "lng": 59.643
    },
    "links_count": 128,
    "objectID": "4331",
    "country_iso": "IR"
  },
  {
    "name": "Southwest Florida International Airport",
    "city": "Fort Myers",
    "country": "United States",
    "iata_code": "RSW",
    "_geoloc": {
      "lat": 26.536167,
      "lng": -81.755167
    },
    "links_count": 128,
    "objectID": "3793",
    "country_iso": "US"
  },
  {
    "name": "Port Columbus International Airport",
    "city": "Columbus",
    "country": "United States",
    "iata_code": "CMH",
    "_geoloc": {
      "lat": 39.997972,
      "lng": -82.891889
    },
    "links_count": 128,
    "objectID": "3759",
    "country_iso": "US"
  },
  {
    "name": "Heydar Aliyev",
    "city": "Baku",
    "country": "Azerbaijan",
    "iata_code": "GYD",
    "_geoloc": {
      "lat": 40.4675,
      "lng": 50.046667
    },
    "links_count": 128,
    "objectID": "2922",
    "country_iso": "AZ"
  },
  {
    "name": "Aeroparque Jorge Newbery",
    "city": "Buenos Aires",
    "country": "Argentina",
    "iata_code": "AEP",
    "_geoloc": {
      "lat": -34.559175,
      "lng": -58.415606
    },
    "links_count": 128,
    "objectID": "2442",
    "country_iso": "AR"
  },
  {
    "name": "Bilbao",
    "city": "Bilbao",
    "country": "Spain",
    "iata_code": "BIO",
    "_geoloc": {
      "lat": 43.301097,
      "lng": -2.910608
    },
    "links_count": 128,
    "objectID": "1216",
    "country_iso": "ES"
  },
  {
    "name": "Sevilla",
    "city": "Sevilla",
    "country": "Spain",
    "iata_code": "SVQ",
    "_geoloc": {
      "lat": 37.418,
      "lng": -5.893106
    },
    "links_count": 127,
    "objectID": "1253",
    "country_iso": "ES"
  },
  {
    "name": "Palermo",
    "city": "Palermo",
    "country": "Italy",
    "iata_code": "PMO",
    "_geoloc": {
      "lat": 38.175958,
      "lng": 13.091019
    },
    "links_count": 126,
    "objectID": "1512",
    "country_iso": "IT"
  },
  {
    "name": "General Mitchell International Airport",
    "city": "Milwaukee",
    "country": "United States",
    "iata_code": "MKE",
    "_geoloc": {
      "lat": 42.947222,
      "lng": -87.896583
    },
    "links_count": 125,
    "objectID": "3717",
    "country_iso": "US"
  },
  {
    "name": "Jinnah International Airport",
    "city": "Karachi",
    "country": "Pakistan",
    "iata_code": "KHI",
    "_geoloc": {
      "lat": 24.906547,
      "lng": 67.160797
    },
    "links_count": 125,
    "objectID": "2206",
    "country_iso": "PK"
  },
  {
    "name": "Mehrabad International Airport",
    "city": "Teheran",
    "country": "Iran",
    "iata_code": "THR",
    "_geoloc": {
      "lat": 35.689167,
      "lng": 51.313416
    },
    "links_count": 125,
    "objectID": "2131",
    "country_iso": "IR"
  },
  {
    "name": "Naha",
    "city": "Okinawa",
    "country": "Japan",
    "iata_code": "OKA",
    "_geoloc": {
      "lat": 26.195814,
      "lng": 127.645869
    },
    "links_count": 123,
    "objectID": "2384",
    "country_iso": "JP"
  },
  {
    "name": "Imam Khomeini",
    "city": "Tehran",
    "country": "Iran",
    "iata_code": "IKA",
    "_geoloc": {
      "lat": 35.416111,
      "lng": 51.152222
    },
    "links_count": 122,
    "objectID": "4330",
    "country_iso": "IR"
  },
  {
    "name": "Dubrovnik",
    "city": "Dubrovnik",
    "country": "Croatia",
    "iata_code": "DBV",
    "_geoloc": {
      "lat": 42.561353,
      "lng": 18.268244
    },
    "links_count": 121,
    "objectID": "1200",
    "country_iso": "HR"
  },
  {
    "name": "Norman Y Mineta San Jose International Airport",
    "city": "San Jose",
    "country": "United States",
    "iata_code": "SJC",
    "_geoloc": {
      "lat": 37.3626,
      "lng": -121.929022
    },
    "links_count": 120,
    "objectID": "3748",
    "country_iso": "US"
  },
  {
    "name": "Linate",
    "city": "Milan",
    "country": "Italy",
    "iata_code": "LIN",
    "_geoloc": {
      "lat": 45.445103,
      "lng": 9.276739
    },
    "links_count": 120,
    "objectID": "1529",
    "country_iso": "IT"
  },
  {
    "name": "Tille",
    "city": "Beauvais",
    "country": "France",
    "iata_code": "BVA",
    "_geoloc": {
      "lat": 49.454444,
      "lng": 2.112778
    },
    "links_count": 120,
    "objectID": "1367",
    "country_iso": "FR"
  },
  {
    "name": "Zhuhai Airport",
    "city": "Zhuhai",
    "country": "China",
    "iata_code": "ZUH",
    "_geoloc": {
      "lat": 22.0064,
      "lng": 113.376
    },
    "links_count": 119,
    "objectID": "6355",
    "country_iso": "CN"
  },
  {
    "name": "Murtala Muhammed",
    "city": "Lagos",
    "country": "Nigeria",
    "iata_code": "LOS",
    "_geoloc": {
      "lat": 6.577369,
      "lng": 3.321156
    },
    "links_count": 119,
    "objectID": "273",
    "country_iso": "NG"
  },
  {
    "name": "Ted Stevens Anchorage International Airport",
    "city": "Anchorage",
    "country": "United States",
    "iata_code": "ANC",
    "_geoloc": {
      "lat": 61.174361,
      "lng": -149.996361
    },
    "links_count": 118,
    "objectID": "3774",
    "country_iso": "US"
  },
  {
    "name": "Cochin",
    "city": "Kochi",
    "country": "India",
    "iata_code": "COK",
    "_geoloc": {
      "lat": 10.155556,
      "lng": 76.391389
    },
    "links_count": 118,
    "objectID": "3136",
    "country_iso": "IN"
  },
  {
    "name": "Jeju International Airport",
    "city": "Cheju",
    "country": "South Korea",
    "iata_code": "CJU",
    "_geoloc": {
      "lat": 33.511306,
      "lng": 126.493028
    },
    "links_count": 118,
    "objectID": "2370",
    "country_iso": "KR"
  },
  {
    "name": "Chaklala",
    "city": "Islamabad",
    "country": "Pakistan",
    "iata_code": "ISB",
    "_geoloc": {
      "lat": 33.616653,
      "lng": 73.099233
    },
    "links_count": 117,
    "objectID": "2223",
    "country_iso": "PK"
  },
  {
    "name": "Liverpool",
    "city": "Liverpool",
    "country": "United Kingdom",
    "iata_code": "LPL",
    "_geoloc": {
      "lat": 53.333611,
      "lng": -2.849722
    },
    "links_count": 116,
    "objectID": "491",
    "country_iso": "GB"
  },
  {
    "name": "Vilnius International Airport",
    "city": "Vilnius",
    "country": "Lithuania",
    "iata_code": "VNO",
    "_geoloc": {
      "lat": 54.634133,
      "lng": 25.285767
    },
    "links_count": 116,
    "objectID": "3959",
    "country_iso": "LT"
  },
  {
    "name": "Deputado Luis Eduardo Magalhaes",
    "city": "Salvador",
    "country": "Brazil",
    "iata_code": "SSA",
    "_geoloc": {
      "lat": -12.910994,
      "lng": -38.331044
    },
    "links_count": 116,
    "objectID": "2621",
    "country_iso": "BR"
  },
  {
    "name": "Dalaman",
    "city": "Dalaman",
    "country": "Turkey",
    "iata_code": "DLM",
    "_geoloc": {
      "lat": 36.713056,
      "lng": 28.7925
    },
    "links_count": 116,
    "objectID": "1715",
    "country_iso": "TR"
  },
  {
    "name": "Balice",
    "city": "Krakow",
    "country": "Poland",
    "iata_code": "KRK",
    "_geoloc": {
      "lat": 50.077731,
      "lng": 19.784836
    },
    "links_count": 114,
    "objectID": "669",
    "country_iso": "PL"
  },
  {
    "name": "Viracopos",
    "city": "Campinas",
    "country": "Brazil",
    "iata_code": "VCP",
    "_geoloc": {
      "lat": -23.0075,
      "lng": -47.134444
    },
    "links_count": 114,
    "objectID": "2578",
    "country_iso": "BR"
  },
  {
    "name": "Memphis International Airport",
    "city": "Memphis",
    "country": "United States",
    "iata_code": "MEM",
    "_geoloc": {
      "lat": 35.042417,
      "lng": -89.976667
    },
    "links_count": 112,
    "objectID": "3473",
    "country_iso": "US"
  },
  {
    "name": "Laishan",
    "city": "Yantai",
    "country": "China",
    "iata_code": "YNT",
    "_geoloc": {
      "lat": 37.401667,
      "lng": 121.371667
    },
    "links_count": 112,
    "objectID": "3392",
    "country_iso": "CN"
  },
  {
    "name": "Hasanuddin",
    "city": "Ujung Pandang",
    "country": "Indonesia",
    "iata_code": "UPG",
    "_geoloc": {
      "lat": -5.061631,
      "lng": 119.554042
    },
    "links_count": 112,
    "objectID": "3240",
    "country_iso": "ID"
  },
  {
    "name": "Metropolitan Oakland International Airport",
    "city": "Oakland",
    "country": "United States",
    "iata_code": "OAK",
    "_geoloc": {
      "lat": 37.721278,
      "lng": -122.220722
    },
    "links_count": 111,
    "objectID": "3453",
    "country_iso": "US"
  },
  {
    "name": "Allama Iqbal International Airport",
    "city": "Lahore",
    "country": "Pakistan",
    "iata_code": "LHE",
    "_geoloc": {
      "lat": 31.521564,
      "lng": 74.403594
    },
    "links_count": 111,
    "objectID": "2207",
    "country_iso": "PK"
  },
  {
    "name": "Cairns International Airport",
    "city": "Cairns",
    "country": "Australia",
    "iata_code": "CNS",
    "_geoloc": {
      "lat": -16.885833,
      "lng": 145.755278
    },
    "links_count": 110,
    "objectID": "3322",
    "country_iso": "AU"
  },
  {
    "name": "Tancredo Neves International Airport",
    "city": "Belo Horizonte",
    "country": "Brazil",
    "iata_code": "CNF",
    "_geoloc": {
      "lat": -19.63375,
      "lng": -43.968856
    },
    "links_count": 110,
    "objectID": "2537",
    "country_iso": "BR"
  },
  {
    "name": "Sacramento International Airport",
    "city": "Sacramento",
    "country": "United States",
    "iata_code": "SMF",
    "_geoloc": {
      "lat": 38.695417,
      "lng": -121.590778
    },
    "links_count": 108,
    "objectID": "3817",
    "country_iso": "US"
  },
  {
    "name": "Minsk 2",
    "city": "Minsk 2",
    "country": "Belarus",
    "iata_code": "MSQ",
    "_geoloc": {
      "lat": 53.882469,
      "lng": 28.030731
    },
    "links_count": 108,
    "objectID": "2954",
    "country_iso": "BY"
  },
  {
    "name": "Kotoka International Airport",
    "city": "Accra",
    "country": "Ghana",
    "iata_code": "ACC",
    "_geoloc": {
      "lat": 5.605186,
      "lng": -0.166786
    },
    "links_count": 107,
    "objectID": "248",
    "country_iso": "GH"
  },
  {
    "name": "Landvetter",
    "city": "Gothenborg",
    "country": "Sweden",
    "iata_code": "GOT",
    "_geoloc": {
      "lat": 57.662836,
      "lng": 12.279819
    },
    "links_count": 106,
    "objectID": "687",
    "country_iso": "SE"
  },
  {
    "name": "Sola",
    "city": "Stavanger",
    "country": "Norway",
    "iata_code": "SVG",
    "_geoloc": {
      "lat": 58.876778,
      "lng": 5.637856
    },
    "links_count": 106,
    "objectID": "666",
    "country_iso": "NO"
  },
  {
    "name": "Dushanbe",
    "city": "Dushanbe",
    "country": "Tajikistan",
    "iata_code": "DYU",
    "_geoloc": {
      "lat": 38.543333,
      "lng": 68.825
    },
    "links_count": 106,
    "objectID": "2979",
    "country_iso": "TJ"
  },
  {
    "name": "Firenze",
    "city": "Florence",
    "country": "Italy",
    "iata_code": "FLR",
    "_geoloc": {
      "lat": 43.809953,
      "lng": 11.2051
    },
    "links_count": 106,
    "objectID": "1563",
    "country_iso": "IT"
  },
  {
    "name": "El Salvador International Airport",
    "city": "San Salvador",
    "country": "El Salvador",
    "iata_code": "SAL",
    "_geoloc": {
      "lat": 13.440947,
      "lng": -89.055728
    },
    "links_count": 105,
    "objectID": "1892",
    "country_iso": "SV"
  },
  {
    "name": "Esenboga",
    "city": "Ankara",
    "country": "Turkey",
    "iata_code": "ESB",
    "_geoloc": {
      "lat": 40.128082,
      "lng": 32.995083
    },
    "links_count": 105,
    "objectID": "1682",
    "country_iso": "TR"
  },
  {
    "name": "Madeira",
    "city": "Funchal",
    "country": "Portugal",
    "iata_code": "FNC",
    "_geoloc": {
      "lat": 32.697889,
      "lng": -16.774453
    },
    "links_count": 104,
    "objectID": "4091",
    "country_iso": "PT"
  },
  {
    "name": "Kota Kinabalu International Airport",
    "city": "Kota Kinabalu",
    "country": "Malaysia",
    "iata_code": "BKI",
    "_geoloc": {
      "lat": 5.937208,
      "lng": 116.051181
    },
    "links_count": 104,
    "objectID": "3269",
    "country_iso": "MY"
  },
  {
    "name": "Astana International Airport",
    "city": "Tselinograd",
    "country": "Kazakhstan",
    "iata_code": "TSE",
    "_geoloc": {
      "lat": 51.022222,
      "lng": 71.466944
    },
    "links_count": 104,
    "objectID": "2910",
    "country_iso": "KZ"
  },
  {
    "name": "Olbia Costa Smeralda",
    "city": "Olbia",
    "country": "Italy",
    "iata_code": "OLB",
    "_geoloc": {
      "lat": 40.898661,
      "lng": 9.517628
    },
    "links_count": 104,
    "objectID": "1520",
    "country_iso": "IT"
  },
  {
    "name": "Bradley International Airport",
    "city": "Windsor Locks",
    "country": "United States",
    "iata_code": "BDL",
    "_geoloc": {
      "lat": 41.938889,
      "lng": -72.683222
    },
    "links_count": 103,
    "objectID": "3825",
    "country_iso": "US"
  },
  {
    "name": "Ioannis Kapodistrias International Airport",
    "city": "Kerkyra/corfu",
    "country": "Greece",
    "iata_code": "CFU",
    "_geoloc": {
      "lat": 39.601944,
      "lng": 19.911667
    },
    "links_count": 103,
    "objectID": "1460",
    "country_iso": "GR"
  },
  {
    "name": "Adelaide International Airport",
    "city": "Adelaide",
    "country": "Australia",
    "iata_code": "ADL",
    "_geoloc": {
      "lat": -34.945,
      "lng": 138.530556
    },
    "links_count": 102,
    "objectID": "3341",
    "country_iso": "AU"
  },
  {
    "name": "Lech Walesa",
    "city": "Gdansk",
    "country": "Poland",
    "iata_code": "GDN",
    "_geoloc": {
      "lat": 54.377569,
      "lng": 18.466222
    },
    "links_count": 101,
    "objectID": "668",
    "country_iso": "PL"
  },
  {
    "name": "Los Cabos International Airport",
    "city": "San Jose Del Cabo",
    "country": "Mexico",
    "iata_code": "SJD",
    "_geoloc": {
      "lat": 23.15185,
      "lng": -109.721044
    },
    "links_count": 101,
    "objectID": "1840",
    "country_iso": "MX"
  },
  {
    "name": "Neuenland",
    "city": "Bremen",
    "country": "Germany",
    "iata_code": "BRE",
    "_geoloc": {
      "lat": 53.0475,
      "lng": 8.786667
    },
    "links_count": 100,
    "objectID": "353",
    "country_iso": "DE"
  },
  {
    "name": "Ciampino",
    "city": "Rome",
    "country": "Italy",
    "iata_code": "CIA",
    "_geoloc": {
      "lat": 41.799361,
      "lng": 12.594936
    },
    "links_count": 100,
    "objectID": "1553",
    "country_iso": "IT"
  },
  {
    "name": "Bari",
    "city": "Bari",
    "country": "Italy",
    "iata_code": "BRI",
    "_geoloc": {
      "lat": 41.138856,
      "lng": 16.760594
    },
    "links_count": 100,
    "objectID": "1501",
    "country_iso": "IT"
  },
  {
    "name": "Xining Caojiabu Airport",
    "city": "Xining",
    "country": "China",
    "iata_code": "XNN",
    "_geoloc": {
      "lat": 36.5275,
      "lng": 102.043
    },
    "links_count": 99,
    "objectID": "6366",
    "country_iso": "CN"
  },
  {
    "name": "Douala",
    "city": "Douala",
    "country": "Cameroon",
    "iata_code": "DLA",
    "_geoloc": {
      "lat": 4.006081,
      "lng": 9.719481
    },
    "links_count": 98,
    "objectID": "897",
    "country_iso": "CM"
  },
  {
    "name": "Prince Mohammad Bin Abdulaziz",
    "city": "Madinah",
    "country": "Saudi Arabia",
    "iata_code": "MED",
    "_geoloc": {
      "lat": 24.553422,
      "lng": 39.705061
    },
    "links_count": 98,
    "objectID": "2074",
    "country_iso": "SA"
  },
  {
    "name": "Girona",
    "city": "Gerona",
    "country": "Spain",
    "iata_code": "GRO",
    "_geoloc": {
      "lat": 41.900969,
      "lng": 2.760547
    },
    "links_count": 98,
    "objectID": "1222",
    "country_iso": "ES"
  },
  {
    "name": "Mactan Cebu International Airport",
    "city": "Cebu",
    "country": "Philippines",
    "iata_code": "CEB",
    "_geoloc": {
      "lat": 10.307542,
      "lng": 123.979439
    },
    "links_count": 97,
    "objectID": "4206",
    "country_iso": "PH"
  },
  {
    "name": "Orlando Sanford International Airport",
    "city": "Sanford",
    "country": "United States",
    "iata_code": "SFB",
    "_geoloc": {
      "lat": 28.777639,
      "lng": -81.237489
    },
    "links_count": 97,
    "objectID": "4167",
    "country_iso": "US"
  },
  {
    "name": "Split",
    "city": "Split",
    "country": "Croatia",
    "iata_code": "SPU",
    "_geoloc": {
      "lat": 43.538944,
      "lng": 16.297964
    },
    "links_count": 97,
    "objectID": "1206",
    "country_iso": "HR"
  },
  {
    "name": "Halifax International Airport",
    "city": "Halifax",
    "country": "Canada",
    "iata_code": "YHZ",
    "_geoloc": {
      "lat": 44.880833,
      "lng": -63.50861
    },
    "links_count": 95,
    "objectID": "73",
    "country_iso": "CA"
  },
  {
    "name": "Chiang Mai International Airport",
    "city": "Chiang Mai",
    "country": "Thailand",
    "iata_code": "CNX",
    "_geoloc": {
      "lat": 18.766847,
      "lng": 98.962644
    },
    "links_count": 95,
    "objectID": "3931",
    "country_iso": "TH"
  },
  {
    "name": "Nurnberg",
    "city": "Nuernberg",
    "country": "Germany",
    "iata_code": "NUE",
    "_geoloc": {
      "lat": 49.4987,
      "lng": 11.066897
    },
    "links_count": 95,
    "objectID": "347",
    "country_iso": "DE"
  },
  {
    "name": "Tripoli International Airport",
    "city": "Tripoli",
    "country": "Libya",
    "iata_code": "TIP",
    "_geoloc": {
      "lat": 32.663544,
      "lng": 13.159011
    },
    "links_count": 95,
    "objectID": "1157",
    "country_iso": "LY"
  },
  {
    "name": "Wuxi Airport",
    "city": "Wuxi",
    "country": "China",
    "iata_code": "WUX",
    "_geoloc": {
      "lat": 31.4944,
      "lng": 120.429
    },
    "links_count": 94,
    "objectID": "6390",
    "country_iso": "CN"
  },
  {
    "name": "Billund",
    "city": "Billund",
    "country": "Denmark",
    "iata_code": "BLL",
    "_geoloc": {
      "lat": 55.740322,
      "lng": 9.151778
    },
    "links_count": 94,
    "objectID": "608",
    "country_iso": "DK"
  },
  {
    "name": "Frankfurt Hahn",
    "city": "Hahn",
    "country": "Germany",
    "iata_code": "HHN",
    "_geoloc": {
      "lat": 49.948672,
      "lng": 7.263892
    },
    "links_count": 94,
    "objectID": "355",
    "country_iso": "DE"
  },